{"296790420470398": {"unsure_count": 5, "attending_count": 7, "declined_count": 12, "name": "HOPE [HealersOfPlanetEarth] on the Hill  -  Citizen Healer Training and  Congressional visits - May 12-14   Washington, DC", "start_time": "2014-05-12T18:30:00-0600", "not_replied_count": 316, "end_time": "2014-05-14T12:00:00-0600", "eid": 296790420470398, "location": "Lutheran Church of the Reformation - 212 East Capitol St. NE"}, "587528717990745": {"unsure_count": 69, "attending_count": 143, "declined_count": 238, "name": "THE ABYSS: A House Dance Experience in Washington DC \"The Final Cypher Session\"", "start_time": "2014-04-19T14:00:00-0400", "not_replied_count": 5002, "longitude": -77.027830185085, "end_time": "2014-04-19T22:00:00-0400", "eid": 587528717990745, "latitude": 38.917086591762, "location": "U Street Music Hall"}, "226379390888425": {"unsure_count": 8, "attending_count": 26, "declined_count": 6, "name": "Taste Washington", "start_time": "2014-04-24T16:30:00-0500", "not_replied_count": 287, "longitude": -90.016765955483, "end_time": "2014-04-24T19:00:00-0500", "eid": 226379390888425, "latitude": 35.127554661685, "location": "The University Club of Memphis"}, "713150788703702": {"unsure_count": 71, "attending_count": 311, "declined_count": 34, "name": "Ragnar Relay - Washington D.C. 2014", "start_time": "2014-09-12T05:30:00-0400", "not_replied_count": 196, "longitude": -78.7628, "end_time": "2014-09-13T20:30:00-0400", "eid": 713150788703702, "latitude": 39.6528, "location": "Cumberland, MD, United States"}, "544251622354685": {"unsure_count": 3, "attending_count": 2, "declined_count": 27, "name": "Beth Washington Ostara, the Vernal Equinox: A Public ritual", "start_time": "2014-03-21T19:00:00-0400", "not_replied_count": 198, "longitude": -71.43808, "end_time": "2014-03-21T21:00:00-0400", "eid": 544251622354685, "latitude": 42.557223, "location": "Aquarius Sanctuary Center"}, "840897669269476": {"unsure_count": 6, "attending_count": 11, "declined_count": 16, "name": "2014 Boys & Girls Club of Washington County Steak & Burger Dinner", "start_time": "2014-04-10T17:00:00-0400", "not_replied_count": 0, "longitude": -77.70442641242, "end_time": null, "eid": 840897669269476, "latitude": 39.633150555124, "location": "Hager Hall Conference & Event Center"}, "1386981054855833": {"unsure_count": 11, "attending_count": 20, "declined_count": 57, "name": "Race to 2025 (Washington) March 14-16, 2014", "start_time": "2014-03-14", "not_replied_count": 0, "longitude": -120.899574, "end_time": null, "eid": 1386981054855833, "latitude": 47.924099, "location": "Tall Timber Ranch"}, "1472201809660015": {"unsure_count": 26, "attending_count": 197, "declined_count": 16, "name": "Washington Improv Theater: Winter 2014 Student Showcase", "start_time": "2014-03-16T11:30:00-0400", "not_replied_count": 397, "longitude": -77.0319374626, "end_time": "2014-03-16T20:00:00-0400", "eid": 1472201809660015, "latitude": 38.9152242843, "location": "Washington Improv Theater"}, "396983387095419": {"unsure_count": 3, "attending_count": 12, "declined_count": 19, "name": "1 Million Guns in Washington", "start_time": "2014-07-04", "not_replied_count": 198, "end_time": null, "eid": 396983387095419, "location": "WashingtonDC and or your state capital "}, "625005810904437": {"unsure_count": 76, "attending_count": 132, "declined_count": 334, "name": "RSF 2014 W/Bengale, Leroy Washington, Dirty Tacos, Loo, Jafly, Mr.Burns", "start_time": "2014-04-10T21:00:00+0200", "not_replied_count": 2357, "longitude": -0.56342559171214, "end_time": "2014-04-11T04:00:00+0200", "eid": 625005810904437, "latitude": 44.82674559985, "location": "Rock School Barbey"}, "611779328891142": {"unsure_count": 24, "attending_count": 29, "declined_count": 15, "name": "J.A.M.R 2014 - Abate of Washington, South King County Chapter", "not_replied_count": 425, "start_time": "2014-05-10", "venue": [], "end_time": null, "eid": 611779328891142, "location": null}, "1409794042614090": {"unsure_count": 4, "attending_count": 89, "declined_count": 15, "name": "Betrayal by Harold Pinter - Washington University Performing Arts Department", "start_time": "2014-03-27T20:00:00-0500", "not_replied_count": 227, "end_time": null, "eid": 1409794042614090, "location": "A.E. Hotchner Studio Theatre"}, "1461649184066827": {"unsure_count": 1, "attending_count": 2, "declined_count": 4, "name": "Taylor's Washington DC 31 Gifts Fundraiser Party", "start_time": "2014-06-26T19:00:00-0400", "not_replied_count": 160, "end_time": "2014-06-26T21:00:00-0400", "eid": 1461649184066827, "location": "Taylor's House - Coldwater, OH"}, "799362516760134": {"unsure_count": 17, "attending_count": 74, "declined_count": 7, "name": "Washington DC: Ringling Protest", "start_time": "2014-03-20T18:30:00-0400", "not_replied_count": 88, "longitude": -77.02124041731, "end_time": "2014-03-23T19:30:00-0400", "eid": 799362516760134, "latitude": 38.898384257794, "location": "Verizon Center"}, "239991559487718": {"unsure_count": 25, "attending_count": 44, "declined_count": 82, "name": "A Raisin in the Sun on Broadway , Staring Denzel Washington, Diahann Carroll and Anika Noni Rose", "start_time": "2014-05-10T09:00:00-0400", "not_replied_count": 873, "longitude": -75.1448, "end_time": "2014-05-10T21:00:00-0400", "eid": 239991559487718, "latitude": 39.998, "location": "2 Divas Travel"}, "1460826090800812": {"unsure_count": 4, "attending_count": 74, "declined_count": 10, "name": "On March 15, 2014, I'll be in Washington DC. Will you?", "start_time": "2014-03-15", "not_replied_count": 96, "end_time": null, "eid": 1460826090800812, "location": "Facebook"}, "1377742159170919": {"unsure_count": 1, "attending_count": 9, "declined_count": 4, "name": "The Nature Generation's 2014 Greater Washington Eco-Golf Classic", "start_time": "2014-04-25T09:00:00-0400", "not_replied_count": 147, "longitude": -77.647193113328, "end_time": null, "eid": 1377742159170919, "latitude": 38.783263894587, "location": "Stonewall Golf Club"}, "1398643983735686": {"unsure_count": 146, "attending_count": 1258, "declined_count": 185, "name": "Miami HEAT vs. Washington Wizards", "start_time": "2014-03-10T19:30:00-0400", "not_replied_count": 93, "longitude": -80.188101191741, "end_time": null, "eid": 1398643983735686, "latitude": 25.781387645627, "location": "AmericanAirlines Arena"}, "334634113334456": {"unsure_count": 103, "attending_count": 121, "declined_count": 240, "name": "The American Anti-Federalist Patriot Party National Convention in Washington DC", "start_time": "2014-12-14", "not_replied_count": 1662, "end_time": null, "eid": 334634113334456, "location": "To be Decided  "}, "362507233886920": {"unsure_count": 24, "attending_count": 14, "declined_count": 91, "name": "Mothers March on Washington DC", "start_time": "2014-04-27", "not_replied_count": 989, "end_time": null, "eid": 362507233886920, "location": "Martin Luther King Monument, Washington Dc"}, "621432524560934": {"unsure_count": 12, "attending_count": 38, "declined_count": 66, "name": "ANTSO Oregon / Washington State pageant", "start_time": "2014-03-22T18:00:00-0700", "not_replied_count": 562, "longitude": -119.288543, "end_time": null, "eid": 621432524560934, "latitude": 45.837505, "location": "Hermiston Conference Center"}, "581491601934482": {"unsure_count": 14, "attending_count": 21, "declined_count": 33, "name": "Washington County's Family Fun Day", "start_time": "2014-03-29T10:00:00-0400", "not_replied_count": 311, "longitude": -81.827198674412, "end_time": "2014-03-29T13:00:00-0400", "eid": 581491601934482, "latitude": 36.774550550682, "location": "Emory & Henry College"}, "1415833975338865": {"unsure_count": 10, "attending_count": 13, "declined_count": 23, "name": "Yoga With Live Music by The Immortal Jellyfish at Baltimore Yoga Village Mt. Washington 6080 Falls Rd. 8:30pm!!", "start_time": "2014-03-28T20:30:00-0400", "not_replied_count": 478, "longitude": -76.650670633657, "end_time": "2014-03-28T22:00:00-0400", "eid": 1415833975338865, "latitude": 39.373183881032, "location": "Baltimore Yoga Village"}, "1477740319116012": {"unsure_count": 13, "attending_count": 13, "declined_count": 4, "name": "Mesherill Washington @ Pa-Nash Eurosoul Lounge", "start_time": "2014-03-27T19:00:00-0400", "not_replied_count": 155, "longitude": -73.739627, "end_time": "2014-03-27T23:00:00-0400", "eid": 1477740319116012, "latitude": 40.66023, "location": "Panash Eurosoul restaurant and lounge"}, "669202326470251": {"unsure_count": 15, "attending_count": 26, "declined_count": 9, "name": "Irish Music, Dance and Festivities at the Washington Conservatory of Music in Glen Echo Park", "start_time": "2014-03-22T19:00:00-0400", "not_replied_count": 189, "longitude": -77.138694044894, "end_time": null, "eid": 669202326470251, "latitude": 38.966322817343, "location": "Glen Echo Park (U.S. National Park Service)"}, "768302706519467": {"unsure_count": 6, "attending_count": 16, "declined_count": 67, "name": "Help Me Raise $10,000 for the Washington Literacy Center", "start_time": "2014-05-01", "not_replied_count": 523, "longitude": -77.0367, "end_time": null, "eid": 768302706519467, "latitude": 38.895, "location": "Washington, DC, United States"}, "645322265517271": {"unsure_count": 7, "attending_count": 17, "declined_count": 21, "name": "Habitat for Humanity of Washington DC Rainbow Build Happy Hour", "start_time": "2014-06-10T17:30:00-0400", "not_replied_count": 406, "longitude": -77.0304759969, "end_time": null, "eid": 645322265517271, "latitude": 38.9170563939, "location": "The DC Center"}, "1385988934959423": {"unsure_count": 11, "attending_count": 45, "declined_count": 1, "name": "LAMA Washington DC 3rd Anniversary Trophy Party", "start_time": "2014-11-01", "not_replied_count": 292, "longitude": -77.502020535606, "end_time": null, "eid": 1385988934959423, "latitude": 38.772589983911, "location": "90 Grados"}, "788308227851559": {"unsure_count": 37, "attending_count": 70, "declined_count": 60, "name": "2014 Washington Comedy Festival", "start_time": "2014-04-26T12:00:00-0700", "not_replied_count": 0, "longitude": -120.31273731779, "end_time": "2014-04-26T23:00:00-0700", "eid": 788308227851559, "latitude": 47.426665095559, "location": "Performing Arts Center of Wenatchee"}, "1382148272062843": {"unsure_count": 10, "attending_count": 13, "declined_count": 63, "name": "Special Port Washington On Your Radar with Brother Sun, Amy Speace, and Martyn Joseph", "start_time": "2014-04-05T20:00:00-0400", "not_replied_count": 3003, "longitude": -73.696049171568, "end_time": null, "eid": 1382148272062843, "latitude": 40.830824230795, "location": "Landmark on Main Street"}, "597821473644696": {"unsure_count": 12, "attending_count": 17, "declined_count": 23, "name": "2014 Washington County's Miss Heart of the USA", "start_time": "2014-05-17T14:00:00-0500", "not_replied_count": 0, "longitude": -85.5386, "end_time": null, "eid": 597821473644696, "latitude": 30.7817, "location": "Chipley, FL, United States"}, "305205152960162": {"unsure_count": 3, "attending_count": 13, "declined_count": 3, "name": "Washington Theater Live Music Show 3/15", "start_time": "2014-03-15T20:00:00-0400", "not_replied_count": 159, "longitude": -74.974682775047, "end_time": null, "eid": 305205152960162, "latitude": 40.759224674978, "location": "The Washington Theatre"}, "228042457400736": {"unsure_count": 18, "attending_count": 22, "declined_count": 5, "name": "The GloRun Washington DC 5K Run/Walk", "start_time": "2014-08-09T20:30:00-0400", "not_replied_count": 255, "longitude": -76.971972994025, "end_time": null, "eid": 228042457400736, "latitude": 38.889807580897, "location": "RFK Stadium"}, "467969006586304": {"unsure_count": 30, "attending_count": 59, "declined_count": 145, "name": "Who Bombed Judi Bari? \u2022 Washington Future Shows TBA", "start_time": "2014-04-20T13:00:00-0700", "not_replied_count": 645, "end_time": "2014-04-24T20:00:00-0700", "eid": 467969006586304, "location": "TBA"}, "385551168214946": {"unsure_count": 6, "attending_count": 9, "declined_count": 23, "name": "Workshops in Bellingham, Washington!", "start_time": "2014-05-23T14:00:00-0700", "not_replied_count": 367, "longitude": -122.475, "end_time": "2014-05-25T17:00:00-0700", "eid": 385551168214946, "latitude": 48.7502, "location": "Bellingham, WA, United States"}, "795376743809887": {"unsure_count": 14, "attending_count": 18, "declined_count": 7, "name": "Washington & Milliner Family & Friends Labor Day Reunion", "start_time": "2014-08-28", "not_replied_count": 249, "longitude": -81.3794, "end_time": null, "eid": 795376743809887, "latitude": 28.5381, "location": "Orlando, FL, United States"}, "424708214314081": {"unsure_count": 15, "attending_count": 12, "declined_count": 42, "name": "Mother's March on Washington DC", "start_time": "2015-04-25T10:00:00-0400", "not_replied_count": 651, "longitude": -77.045, "end_time": null, "eid": 424708214314081, "latitude": 38.886111111111, "location": "Martin Luther King, Jr. National Memorial"}, "246275522211379": {"unsure_count": 26, "attending_count": 191, "declined_count": 21, "name": "Run or Dye - Washington DC", "start_time": "2014-05-24T09:00:00-0400", "not_replied_count": 177, "longitude": -76.971972994025, "end_time": null, "eid": 246275522211379, "latitude": 38.889807580897, "location": "RFK Stadium"}, "258780664302733": {"unsure_count": 29, "attending_count": 57, "declined_count": 22, "name": "Special Tasting March 23nd - Washington Wine Month", "start_time": "2014-03-23T14:00:00-0700", "not_replied_count": 455, "longitude": -122.32346969786, "end_time": "2014-03-23T17:00:00-0700", "eid": 258780664302733, "latitude": 47.661636176154, "location": "Wine World"}, "1448934171989255": {"unsure_count": 10, "attending_count": 7, "declined_count": 19, "name": "Sailin' thru the Garden of Eden Suite- Byron Washington", "start_time": "2014-03-26T20:00:00-0400", "not_replied_count": 223, "end_time": null, "eid": 1448934171989255, "location": "Tree House Lounge; 1006 Florida ave. NE  WDC 20002"}, "545865062174398": {"unsure_count": 78, "attending_count": 147, "declined_count": 29, "name": "Dropkick Murphys @ ShamrockFEST - Washington, DC", "start_time": "2014-03-23T00:00:00+0100", "not_replied_count": 45, "longitude": -77.0367, "end_time": "2014-03-23T03:00:00+0100", "eid": 545865062174398, "latitude": 38.895, "location": "Washington, DC, United States"}, "451144708331060": {"unsure_count": 22, "attending_count": 140, "declined_count": 13, "name": "One Direction @ Nationals Park - Washington, DC", "start_time": "2014-08-12T01:00:00+0200", "not_replied_count": 2, "longitude": -77.0367, "end_time": "2014-08-12T04:00:00+0200", "eid": 451144708331060, "latitude": 38.895, "location": "Washington, DC, United States"}, "224777717719797": {"unsure_count": 0, "attending_count": 1, "declined_count": 0, "name": "George Washington's Mount Vernon Wine Festval", "start_time": "2014-05-17T18:00:00-0400", "not_replied_count": 2, "longitude": -77.087079272799, "end_time": null, "eid": 224777717719797, "latitude": 38.710740689066, "location": "George Washington's Mount Vernon"}, "545461762227678": {"unsure_count": 6, "attending_count": 9, "declined_count": 19, "name": "St Patty's Saturday @ 10 East Washington", "start_time": "2014-03-15", "not_replied_count": 430, "longitude": -84.798777157, "end_time": null, "eid": 545461762227678, "latitude": 33.3752042347, "location": "Ten East Washington"}, "1410478905867123": {"unsure_count": 3, "attending_count": 17, "declined_count": 19, "name": "Mission Trip to Bellevue, Washington (Please Read, this is my heart)", "start_time": "2014-07-12", "not_replied_count": 281, "longitude": -122.159, "end_time": null, "eid": 1410478905867123, "latitude": 47.5976, "location": "Bellevue, WA, United States"}, "472029806243597": {"unsure_count": 19, "attending_count": 94, "declined_count": 11, "name": "Warrior Dash Washington", "start_time": "2014-07-19", "not_replied_count": 115, "end_time": null, "eid": 472029806243597, "location": "Kelley Farm 19301 Sumner Buckley Highway Bonney Lake, WA 98391"}, "235062990018504": {"unsure_count": 9, "attending_count": 52, "declined_count": 16, "name": "A Conversation with Washington Post Columnist and Black Girls Rock! Honoree, Rahiel Tesfamariam", "start_time": "2014-03-28T18:00:00-0400", "not_replied_count": 331, "longitude": -84.322974, "end_time": null, "eid": 235062990018504, "latitude": 33.791552, "location": "DUC: Dobbs University Center"}, "1402473959994835": {"unsure_count": 4, "attending_count": 21, "declined_count": 11, "name": "Washington Cherry Blossom Spring 2014", "start_time": "2014-03-30T06:15:00-0400", "not_replied_count": 250, "longitude": -77.036549753964, "end_time": "2014-03-30T23:00:00-0400", "eid": 1402473959994835, "latitude": 38.898713522333, "location": "The White House"}, "509343302486702": {"unsure_count": 4, "attending_count": 6, "declined_count": 26, "name": "WASHINGTON, DC TOUR", "start_time": "2014-07-16", "not_replied_count": 237, "end_time": null, "eid": 509343302486702, "location": "62 street, Hialeah, Florida 33012"}, "622501927798392": {"unsure_count": 4, "attending_count": 4, "declined_count": 9, "name": "M\u00eas do doutor Washington", "start_time": "2014-03-31", "not_replied_count": 236, "longitude": -43.941180704873, "end_time": null, "eid": 622501927798392, "latitude": -19.918035443188, "location": "Ortodontia AMO BH"}, "492744890832032": {"unsure_count": 9, "attending_count": 8, "declined_count": 27, "name": "Grand Opening Red Ribbon Cutting with Mrs. Washington 2014", "start_time": "2014-03-19T17:00:00-0700", "not_replied_count": 228, "longitude": -122.276993, "end_time": null, "eid": 492744890832032, "latitude": 47.831512, "location": "Radiant MedSpa & Weight Loss"}, "225339794340342": {"unsure_count": 119, "attending_count": 197, "declined_count": 104, "name": "H&M WASHINGTON, PA | GRAND OPENING TANGER OUTLETS AT PITTSBURGH", "start_time": "2014-03-20T12:00:00-0400", "not_replied_count": 73, "longitude": -0.14210576061018, "end_time": null, "eid": 225339794340342, "latitude": 51.515352480773, "location": "H&M"}, "714164661937338": {"unsure_count": 15, "attending_count": 66, "declined_count": 10, "name": "Washington DC South Mission Reunion", "start_time": "2014-04-04", "not_replied_count": 99, "end_time": null, "eid": 714164661937338, "location": "98 East Canyon Crest Road, Alpine, Utah 84004- Alpine Stake Center, East of Thanksgiving point"}, "1429462950629880": {"unsure_count": 11, "attending_count": 10, "declined_count": 23, "name": "BloomScreen & Washington DC Portuguese Meetup present: Favela Rising", "start_time": "2014-04-08T19:00:00-0400", "not_replied_count": 1128, "longitude": -77.028049864177, "end_time": "2014-04-08T21:00:00-0400", "eid": 1429462950629880, "latitude": 38.930187808924, "location": "Bloombars"}, "484707981633735": {"unsure_count": 12, "attending_count": 51, "declined_count": 17, "name": "Washington Community Night at Five Points", "start_time": "2014-03-20T17:30:00-0500", "not_replied_count": 136, "longitude": -89.42275731255, "end_time": "2014-03-20T20:00:00-0500", "eid": 484707981633735, "latitude": 40.707132570129, "location": "Five Points Washington"}, "441183872651063": {"unsure_count": 7, "attending_count": 117, "declined_count": 43, "name": "Kirk Cousins: Quarterback for the Washington Redskins", "start_time": "2014-03-25T20:00:00-0400", "not_replied_count": 703, "end_time": null, "eid": 441183872651063, "location": "ICC 115"}, "382681515202894": {"unsure_count": 135, "attending_count": 264, "declined_count": 226, "name": "Ask the Baltimore County Council to REFORM Baltimore County Animal Services", "start_time": "2014-04-07T17:30:00-0400", "not_replied_count": 5358, "end_time": "2014-04-07T19:00:00-0400", "eid": 382681515202894, "location": "Outside the Historic Courthouse at 400 Washington Avenue, Towson, MD 21204 (on the surrounding public sidewalks bordering Chesapeake, Pennsylvania and Washington Avenues)"}, "541934319247476": {"unsure_count": 14, "attending_count": 34, "declined_count": 3, "name": "George Washington Class Of 1984 Reunion", "start_time": "2014-07-12T19:00:00+0200", "not_replied_count": 182, "longitude": -104.91005298047, "end_time": "2014-07-12T22:00:00+0200", "eid": 541934319247476, "latitude": 39.666788648745, "location": "Bible Park"}, "443461509023666": {"unsure_count": 15, "attending_count": 23, "declined_count": 18, "name": "George Washington BLUEGRASS FESTIVAL", "start_time": "2022-09-16", "not_replied_count": 207, "longitude": -119.859294, "end_time": null, "eid": 443461509023666, "latitude": 47.079036, "location": "George Community Hall | City of George, Washington"}, "336135956530463": {"unsure_count": 8, "attending_count": 9, "declined_count": 23, "name": "Workshops in Spokane, Washington!", "start_time": "2014-05-14T07:00:00-0700", "not_replied_count": 366, "longitude": -117.425, "end_time": "2014-05-21T22:00:00-0700", "eid": 336135956530463, "latitude": 47.6589, "location": "Spokane, WA, United States"}, "221717538001587": {"unsure_count": 6, "attending_count": 36, "declined_count": 22, "name": "Help Send Jeffrey to Washington D.C. and New York City!!!", "start_time": "2014-03-31", "not_replied_count": 266, "longitude": -77.0367, "end_time": null, "eid": 221717538001587, "latitude": 38.895, "location": "Washington, DC, United States"}, "616267098452840": {"unsure_count": 24, "attending_count": 28, "declined_count": 84, "name": "8th Grade Washington DC Fundraising Garage/Bake Sale", "start_time": "2014-04-05T09:00:00-0500", "not_replied_count": 838, "longitude": -92.6699480478, "end_time": "2014-04-05T14:00:00-0500", "eid": 616267098452840, "latitude": 45.774624546, "location": "Grantsburg Middle School"}, "303921516422697": {"unsure_count": 12, "attending_count": 21, "declined_count": 8, "name": "Combined Service Club Fundraiser for Washington 175th Celebration", "not_replied_count": 241, "start_time": "2014-03-25T17:00:00-0500", "venue": [], "end_time": "2014-03-25T21:00:00-0500", "eid": 303921516422697, "location": null}, "514722141976559": {"unsure_count": 4, "attending_count": 42, "declined_count": 7, "name": "20th Annual Relay For Life of Washington County", "start_time": "2014-05-16T16:00:00-0400", "not_replied_count": 147, "location": "Civitan Park", "longitude": -81.590332849382, "end_time": "2014-05-17T10:00:00-0400", "latitude": 39.273042404124, "eid": 514722141976559}, "204607736393857": {"unsure_count": 15, "attending_count": 39, "declined_count": 14, "name": "Southwest Washington Color Palooza 2014", "start_time": "2014-05-10T08:00:00-0700", "not_replied_count": 140, "longitude": -122.664688, "end_time": "2014-05-11T17:00:00-0700", "eid": 204607736393857, "latitude": 45.74773, "location": "Southwest Washington Paint Horse Club Color-Palooza"}, "706300432733962": {"unsure_count": 11, "attending_count": 40, "declined_count": 57, "name": "Washington Center 8th Annual Walk & Roll", "start_time": "2014-04-26T09:00:00-0400", "not_replied_count": 421, "longitude": -82.274880562148, "end_time": "2014-04-26T10:00:00-0400", "eid": 706300432733962, "latitude": 34.773574933151, "location": "Brookwood Church"}, "519811208133403": {"unsure_count": 21, "attending_count": 19, "declined_count": 39, "name": "South Carolina to Key West to Washington DC - 115 Million Patriots Across America - For America (Ride, Walk, Drive or Fly)", "start_time": "2014-05-13T10:00:00-0400", "not_replied_count": 774, "longitude": -78.8755, "end_time": "2014-05-26T10:00:00-0400", "eid": 519811208133403, "latitude": 33.7042, "location": "Myrtle Beach, SC, United States"}, "249060908551682": {"unsure_count": 23, "attending_count": 80, "declined_count": 17, "name": "Kino MacGregor Washington, DC Workshop", "start_time": "2014-03-29T09:00:00-0400", "not_replied_count": 107, "longitude": -77.051613, "end_time": "2014-03-30T14:00:00-0400", "eid": 249060908551682, "latitude": 38.924259, "location": "Woodley Park Yoga - Ashtanga Yoga Studio"}, "484179748348458": {"unsure_count": 11, "attending_count": 14, "declined_count": 19, "name": "Our 3rd Annual Blooms and Blossoms Spring Gala Fundraiser for Hospice of Washington County", "start_time": "2014-04-11T19:30:00-0500", "not_replied_count": 262, "longitude": -91.909706, "end_time": null, "eid": 484179748348458, "latitude": 41.335812, "location": "Wooden Wheel Vineyards"}, "1472892652927737": {"unsure_count": 3, "attending_count": 4, "declined_count": 7, "name": "5Rhythms - Sunday Waves in Port Washington", "start_time": "2014-03-23T17:00:00-0400", "not_replied_count": 170, "longitude": -73.689158254551, "end_time": "2014-03-23T19:00:00-0400", "eid": 1472892652927737, "latitude": 40.831347457347, "location": "Om Sweet Om"}, "514633361982537": {"unsure_count": 268, "attending_count": 382, "declined_count": 1021, "name": "Cherry 2014: Metamorphosis", "start_time": "2014-04-04T21:00:00-0400", "not_replied_count": 10890, "longitude": -77.026003611685, "end_time": "2014-04-06T09:30:00-0400", "eid": 514633361982537, "latitude": 38.901555006469, "location": "Washington, D.C."}, "710274865660621": {"unsure_count": 31, "attending_count": 101, "declined_count": 38, "name": "Washington State Mr and Ms Leather and Washington State Bootblack 2014", "start_time": "2014-03-22T18:00:00-0700", "not_replied_count": 182, "longitude": -122.3160136396, "end_time": null, "eid": 710274865660621, "latitude": 47.615080773877, "location": "The Cuff Seattle"}, "1381777138758853": {"unsure_count": 14, "attending_count": 14, "declined_count": 13, "name": "17th Annual Washington Island Retreat", "start_time": "2014-07-11", "not_replied_count": 167, "longitude": -86.8916822915, "end_time": null, "eid": 1381777138758853, "latitude": 45.3569354273, "location": "Washington Island Campground LLC"}, "370473236423934": {"unsure_count": 0, "attending_count": 2, "declined_count": 3, "name": "Prayer Walk Washington Park/Gibbs Village", "start_time": "2014-03-19T08:30:00-0500", "not_replied_count": 213, "longitude": -86.3319534271, "end_time": "2014-03-19T09:30:00-0500", "eid": 370473236423934, "latitude": 32.3587261471, "location": "Common Ground Montgomery"}, "232935413557945": {"unsure_count": 18, "attending_count": 37, "declined_count": 10, "name": "MONTHLY JAM!!! #75 @ George Washington H.S. & China Beach", "start_time": "2014-03-16T12:00:00-0700", "not_replied_count": 202, "longitude": -122.49201111111, "end_time": null, "eid": 232935413557945, "latitude": 37.777813888889, "location": "George Washington High School (San Francisco)"}, "818563841493719": {"unsure_count": 13, "attending_count": 18, "declined_count": 23, "name": "RAW: Washington, DC  presents SPECTRUM", "start_time": "2014-04-27T18:00:00-0400", "not_replied_count": 1011, "longitude": -77.023044270978, "end_time": "2014-04-27T22:00:00-0400", "eid": 818563841493719, "latitude": 38.896281993619, "location": "Penn Social"}, "1408574412735724": {"unsure_count": 2, "attending_count": 5, "declined_count": 4, "name": "Breast /Cancer Walk Washington DC", "start_time": "2014-05-03T12:30:00+0200", "not_replied_count": 359, "longitude": -76.7902, "end_time": "2014-06-09T06:30:00+0200", "eid": 1408574412735724, "latitude": 39.0724, "location": "Maryland"}, "510510122368864": {"unsure_count": 35, "attending_count": 104, "declined_count": 16, "name": "Save the Date: SSDP's 2014 International Conference + Lobby Day in Washington, DC!", "start_time": "2014-09-26", "not_replied_count": 275, "longitude": -77.072860581233, "end_time": null, "eid": 510510122368864, "latitude": 38.897514379749, "location": "Holiday Inn Rosslyn"}, "308792269245754": {"unsure_count": 57, "attending_count": 242, "declined_count": 44, "name": "USA, Washington, Echostage", "start_time": "2014-03-21", "not_replied_count": 45, "longitude": -76.972418711096, "end_time": null, "eid": 308792269245754, "latitude": 38.919938568983, "location": "Echostage"}, "511263115649901": {"unsure_count": 16, "attending_count": 48, "declined_count": 66, "name": "Washington, DC- The Chai Notes Spring '14 Tour!!!", "start_time": "2014-03-28T12:00:00-0400", "not_replied_count": 449, "longitude": -77.0367, "end_time": "2014-04-01T20:00:00-0400", "eid": 511263115649901, "latitude": 38.895, "location": "Washington, DC, United States"}, "1398043553770243": {"unsure_count": 13, "attending_count": 222, "declined_count": 6, "name": "Where We Are Tour- Washington DC, USA", "start_time": "2014-08-11", "not_replied_count": 7, "longitude": -77.0076827183, "end_time": null, "eid": 1398043553770243, "latitude": 38.872744247745, "location": "Nationals Park"}, "684388754929435": {"unsure_count": 57, "attending_count": 44, "declined_count": 58, "name": "6th Annual Washington Youth Academy/Armed Forces Motorcycle Ride & Show", "start_time": "2014-05-18T09:00:00-0700", "not_replied_count": 892, "longitude": -122.68741173414, "end_time": null, "eid": 684388754929435, "latitude": 47.555283840981, "location": "Pendergast Fields"}, "808190149210341": {"unsure_count": 1, "attending_count": 8, "declined_count": 3, "name": "Eastern Oregon/Washington Fellowship of Christian Athletes Retreat!", "start_time": "2014-05-30", "not_replied_count": 311, "longitude": -118.449, "end_time": null, "eid": 808190149210341, "latitude": 45.235, "location": "Camp Elkanah, OR, United States"}, "232939510214608": {"unsure_count": 58, "attending_count": 73, "declined_count": 32, "name": "5th National Armed Forces FreedomRide Washington/Oregon", "start_time": "2014-05-17T10:00:00-0700", "not_replied_count": 447, "end_time": "2014-05-17T17:00:00-0700", "eid": 232939510214608, "location": "1314 NE 102nd St Hazel Dell Washington"}, "201151990073998": {"unsure_count": 71, "attending_count": 139, "declined_count": 82, "name": "Empty The Tanks-Seattle,Washington", "start_time": "2014-05-24T13:00:00-0700", "not_replied_count": 1628, "longitude": -122.34391728399, "end_time": null, "eid": 201151990073998, "latitude": 47.610130388928, "location": "Victor Steinbrueck Park"}, "225199304343360": {"unsure_count": 0, "attending_count": 0, "declined_count": 0, "name": "Washington Reed @ The Castle Inn - Chester, United Kingdom", "start_time": "2014-05-04T13:00:00+0200", "not_replied_count": 0, "longitude": 0.142367782533, "end_time": "2014-05-04T16:00:00+0200", "eid": 225199304343360, "latitude": 52.2177091462, "location": "Chesterton, United Kingdom"}, "689536814412946": {"unsure_count": 73, "attending_count": 193, "declined_count": 197, "name": "The Premier Northwest Stroll Show 7 in Memoriam of Nancy Zepeda and Ashley Gonzales", "start_time": "2014-04-19T16:00:00-0700", "not_replied_count": 2632, "longitude": -117.57855934, "end_time": null, "eid": 689536814412946, "latitude": 47.4901679383, "location": "Eastern Washington University Showalter Hall Auditorium"}, "735180969847664": {"unsure_count": 18, "attending_count": 33, "declined_count": 20, "name": "Howl for Wolves in Washington - March 24, 2014", "start_time": "2014-03-24T06:00:00-0700", "not_replied_count": 447, "longitude": -122.358515936, "end_time": null, "eid": 735180969847664, "latitude": 47.6236070719, "location": "The Internet"}, "1389772541280692": {"unsure_count": 23, "attending_count": 30, "declined_count": 47, "name": "World Wide March Against Government Corruption Seattle Washington", "start_time": "2014-05-01T13:05:00-0700", "not_replied_count": 430, "longitude": -122.335365, "end_time": null, "eid": 1389772541280692, "latitude": 47.604568, "location": "State of Washington"}, "163212020538324": {"unsure_count": 40, "attending_count": 63, "declined_count": 30, "name": "L.A. Lakers vs. Washington", "start_time": "2014-03-22T03:30:00+0100", "not_replied_count": 44, "longitude": -118.26723855, "end_time": null, "eid": 163212020538324, "latitude": 34.043330721595, "location": "Staples Center"}, "285459424936720": {"unsure_count": 87, "attending_count": 104, "declined_count": 238, "name": "Curtain Call: The Gender Performance*", "start_time": "2014-03-29T18:30:00-0400", "not_replied_count": 3022, "longitude": -77.035829194128, "end_time": "2014-03-29T21:00:00-0400", "eid": 285459424936720, "latitude": 38.933377049988, "location": "St. Stephen & the Incarnation Episcopal Church - Washington, DC"}, "214371178762147": {"unsure_count": 46, "attending_count": 121, "declined_count": 83, "name": "Washington Brasileiro Ao vivo - www.neresshowbar.com.br", "start_time": "2014-03-29T22:00:00-0300", "not_replied_count": 1976, "longitude": -46.479736230687, "end_time": "2014-03-30T05:00:00-0300", "eid": 214371178762147, "latitude": -23.507387047458, "location": "Neres Show Bar"}, "514833795304055": {"unsure_count": 5, "attending_count": 7, "declined_count": 11, "name": "Monthly Washington Revels ~ Carpe Diem Sing: Irish Songs & Spring Songs!", "start_time": "2014-03-21T18:30:00-0400", "not_replied_count": 593, "longitude": -77.017426, "end_time": "2014-03-21T20:00:00-0400", "eid": 514833795304055, "latitude": 39.000969, "location": "Washington Revels"}, "1457613604462733": {"unsure_count": 18, "attending_count": 44, "declined_count": 11, "name": "Meatout 2014- Washington D.C", "start_time": "2014-03-16T11:30:00-0400", "not_replied_count": 165, "longitude": -77.029597590228, "end_time": "2014-03-16T14:30:00-0400", "eid": 1457613604462733, "latitude": 38.893857659103, "location": "Federal Triangle Metro Station"}, "333625060111458": {"unsure_count": 46, "attending_count": 282, "declined_count": 20, "name": "Washington DC Author Event", "start_time": "2014-05-03T12:00:00-0400", "not_replied_count": 88, "longitude": -77.028488261716, "end_time": "2014-05-03T16:00:00-0400", "eid": 333625060111458, "latitude": 38.902613802085, "location": "Four Points by Sheraton Washington D.C"}, "694481677239871": {"unsure_count": 2, "attending_count": 6, "declined_count": 24, "name": "Wildtree fundraiser for Julianne's 8th grade trip to Washington DC.", "start_time": "2014-03-12", "not_replied_count": 291, "end_time": null, "eid": 694481677239871, "location": "Wildtree representative Kelly Higinson."}, "1424264231149935": {"unsure_count": 13, "attending_count": 10, "declined_count": 8, "name": "Martina Sandiego @ Tree House Lounge - Washington, DC", "start_time": "2014-04-15T01:30:00+0200", "not_replied_count": 160, "longitude": -77.0367, "end_time": "2014-04-15T04:30:00+0200", "eid": 1424264231149935, "latitude": 38.895, "location": "Washington, DC, United States"}, "371228929679372": {"unsure_count": 39, "attending_count": 221, "declined_count": 23, "name": "Miley Cyrus in Washington, DC", "start_time": "2014-04-10T19:00:00-0400", "not_replied_count": 31, "longitude": -77.02124041731, "end_time": null, "eid": 371228929679372, "latitude": 38.898384257794, "location": "Verizon Center"}, "191926851013274": {"unsure_count": 22, "attending_count": 128, "declined_count": 17, "name": "Joe Bonamassa U.S. Spring Tour 2014 - Yakima Washington", "start_time": "2014-03-27T20:00:00-0400", "not_replied_count": 92, "end_time": null, "eid": 191926851013274, "location": "capitol theatre"}, "616067321812471": {"unsure_count": 54, "attending_count": 76, "declined_count": 106, "name": "Guido Bday Bash w:Mike Ingram,Curb Service,Brandon Washington,Andy Mo & Amy Mitchell", "start_time": "2014-03-29T21:00:00-0500", "not_replied_count": 1999, "longitude": -88.243209565016, "end_time": null, "eid": 616067321812471, "latitude": 40.117415670345, "location": "Cowboy Monkey"}, "273036986189859": {"unsure_count": 28, "attending_count": 52, "declined_count": 30, "name": "Chipotle fundraiser for SUPER Learning Center's 2014 Leadership Class Washington, D.C. field trip", "start_time": "2014-03-25T17:00:00-0400", "not_replied_count": 682, "longitude": -81.493871878439, "end_time": "2014-03-25T20:00:00-0400", "eid": 273036986189859, "latitude": 40.982792419892, "location": "Chipotle"}, "421203598015578": {"unsure_count": 6, "attending_count": 57, "declined_count": 6, "name": "Reggae on the Block Music Festival at Social Pavillion and Washington Sq...", "start_time": "2014-05-10T21:00:00+0200", "not_replied_count": 267, "end_time": null, "eid": 421203598015578, "location": "Social Pavillion and Washington Square - 10 West Washington Street, Orlando, FL 32801"}, "1414182228841304": {"unsure_count": 5, "attending_count": 4, "declined_count": 14, "name": "WASHINGTON STREET STATION KARAOKE", "start_time": "2014-03-27T21:00:00-0500", "not_replied_count": 268, "longitude": -88.484190850516, "end_time": null, "eid": 1414182228841304, "latitude": 42.337764946032, "location": "Washington Street Station"}, "225369977655621": {"unsure_count": 1, "attending_count": 7, "declined_count": 0, "name": "Pampered Chef Fundraiser for The Tourette Syndrome Association of Greater Washington", "start_time": "2014-04-02T07:00:00-0400", "not_replied_count": 48, "end_time": "2014-04-10T23:00:00-0400", "eid": 225369977655621, "location": "ONLINE ~  http://pamperedchef.biz/tonyacole?page=host-search-results&showId=4353302"}, "270197299808846": {"unsure_count": 15, "attending_count": 11, "declined_count": 129, "name": "By popular demand, a demo in Washington, DC of To Your Taste!", "start_time": "2014-04-15T13:00:00-0400", "not_replied_count": 2978, "longitude": -77.0834439024, "end_time": "2014-04-15T15:00:00-0400", "eid": 270197299808846, "latitude": 38.9574400145, "location": "Capital Wine School"}, "604187299662369": {"unsure_count": 8, "attending_count": 32, "declined_count": 38, "name": "Baltimore Washington Eagles Australian Rules Football Scavenger Hunt", "start_time": "2014-03-22T16:30:00-0400", "not_replied_count": 406, "longitude": -77.0403342831, "end_time": "2014-03-22T21:00:00-0400", "eid": 604187299662369, "latitude": 38.9014714813, "location": "The Bottom Line"}, "612274025525117": {"unsure_count": 15, "attending_count": 27, "declined_count": 17, "name": "Activist Caravan to Washington, DC for the Parents March Against Prohibition!!", "start_time": "2014-10-15", "not_replied_count": 317, "end_time": null, "eid": 612274025525117, "location": "West Coast to East Coast, North to South!"}, "631404923578289": {"unsure_count": 27, "attending_count": 163, "declined_count": 18, "name": "Echostage, Washington DC - SOLD OUT", "start_time": "2014-03-16", "not_replied_count": 9, "longitude": -76.972418711096, "end_time": null, "eid": 631404923578289, "latitude": 38.919938568983, "location": "Echostage"}, "1375448172726721": {"unsure_count": 17, "attending_count": 13, "declined_count": 62, "name": "The Soul Collective supporting Geno Washington!", "start_time": "2014-04-19T20:00:00+0100", "not_replied_count": 1020, "longitude": -0.866085681088, "end_time": "2014-04-19T23:00:00+0100", "eid": 1375448172726721, "latitude": 53.7454826001, "location": "Shire Hall Howden"}, "220138968184348": {"unsure_count": 21, "attending_count": 29, "declined_count": 32, "name": "Washington State Earth Day to May Day! People, Planet, Peace over Profit!", "start_time": "2014-04-22T00:05:00-0700", "not_replied_count": 0, "longitude": -121.5708, "end_time": "2014-05-01T23:55:00-0700", "eid": 220138968184348, "latitude": 47.3917, "location": "Washington"}, "1505038279723149": {"unsure_count": 50, "attending_count": 266, "declined_count": 53, "name": "Skrillex @ Washington Avenue Armory - Albany, NY", "start_time": "2014-06-04T01:00:00+0200", "not_replied_count": 1501, "longitude": -73.7813, "end_time": "2014-06-04T04:00:00+0200", "eid": 1505038279723149, "latitude": 42.6598, "location": "Albany, NY, United States"}, "529596210488554": {"unsure_count": 64, "attending_count": 58, "declined_count": 66, "name": "Jimmy Anselmo PRESENTS Allen Toussaint, Marcia Ball & Walter Wolfman Washington", "start_time": "2014-04-26T19:00:00-0500", "not_replied_count": 2649, "longitude": -90.066303597705, "end_time": null, "eid": 529596210488554, "latitude": 29.941586636089, "location": "Generations Hall"}, "368234696650631": {"unsure_count": 11, "attending_count": 18, "declined_count": 33, "name": "SHAMROCKS AND SHENANIGANS - WASHINGTON D.C.", "start_time": "2014-03-15T15:00:00-0400", "not_replied_count": 388, "longitude": -77.043451460936, "end_time": null, "eid": 368234696650631, "latitude": 38.90550462192, "location": "Rumors"}, "753120818039058": {"unsure_count": 52, "attending_count": 46, "declined_count": 170, "name": "EMET goes to WASHINGTON D.C.!!! Join US! =D", "start_time": "2014-03-30T00:00:00-0400", "not_replied_count": 2640, "end_time": "2014-03-30T23:00:00-0400", "eid": 753120818039058, "location": "Washington DC"}, "377194515756395": {"unsure_count": 4, "attending_count": 5, "declined_count": 14, "name": "Nelson's welcome to Washington Vibe", "start_time": "2014-03-20T04:00:00+0100", "not_replied_count": 264, "longitude": -119.276480759, "end_time": null, "eid": 377194515756395, "latitude": 46.2869519432, "location": "Emerald Of Siam"}, "133745940130295": {"unsure_count": 42, "attending_count": 32, "declined_count": 135, "name": "March On Washington", "start_time": "2014-07-03", "not_replied_count": 577, "longitude": -77.0367, "end_time": null, "eid": 133745940130295, "latitude": 38.895, "location": "Washington, DC, United States"}, "525140394202547": {"unsure_count": 20, "attending_count": 27, "declined_count": 30, "name": "Ellie Walks Avon's Breast Cancer Walk in Washington DC", "start_time": "2014-05-03", "not_replied_count": 200, "longitude": -77.0367, "end_time": null, "eid": 525140394202547, "latitude": 38.895, "location": "Washington, DC, United States"}, "1388162148114646": {"unsure_count": 39, "attending_count": 68, "declined_count": 122, "name": "Lil Flip Live Richland Washington @Kimos Sports Bar", "start_time": "2014-04-05", "not_replied_count": 2704, "longitude": -119.22206960833, "end_time": null, "eid": 1388162148114646, "latitude": 46.237640767783, "location": "Kimo's"}, "222414631292910": {"unsure_count": 22, "attending_count": 53, "declined_count": 28, "name": "Tonight: Graduate Washington's 2014 Kickoff", "start_time": "2014-03-19T18:30:00-0700", "not_replied_count": 289, "end_time": null, "eid": 222414631292910, "location": "Wedgewood Ale House, 8515 35th Ave NE, Seattle, WA 98115"}, "755853617773161": {"unsure_count": 6, "attending_count": 36, "declined_count": 15, "name": "Sohee Lee Speaks at Washington University", "start_time": "2014-04-15T18:00:00-0500", "not_replied_count": 351, "end_time": "2014-04-15T19:30:00-0500", "eid": 755853617773161, "location": "Washington University in St. Louis, Bauer Hall Atrium"}, "215554935308042": {"unsure_count": 7, "attending_count": 14, "declined_count": 20, "name": "Zach + Bridget // King Washington at Harvard & Stone", "start_time": "2014-03-26T21:00:00-0700", "not_replied_count": 338, "longitude": -118.30438518736, "end_time": null, "eid": 215554935308042, "latitude": 34.101895187992, "location": "Harvard & Stone"}, "587893824629165": {"unsure_count": 16, "attending_count": 37, "declined_count": 51, "name": "Celebrate Emerge Vermont in Washington, DC!", "start_time": "2014-03-19T18:30:00-0400", "not_replied_count": 1000, "longitude": -77.003242131525, "end_time": "2014-03-19T20:30:00-0400", "eid": 587893824629165, "latitude": 38.894992437544, "location": "The 201 Bar"}, "1475371032676711": {"unsure_count": 19, "attending_count": 52, "declined_count": 22, "name": "Washington Square Review #33 - Launch Party", "start_time": "2014-03-29T19:00:00-0400", "not_replied_count": 736, "longitude": -73.9979521804, "end_time": null, "eid": 1475371032676711, "latitude": 40.7346660314, "location": "NYU Creative Writing Program"}, "642698999109124": {"unsure_count": 35, "attending_count": 61, "declined_count": 71, "name": "The Inaugural National Diversity Pre-Law Conference & Law Fair 2014 * Washington, DC", "start_time": "2014-04-04T08:00:00-0400", "not_replied_count": 1228, "longitude": -77.0111555998, "end_time": "2014-04-05T22:00:00-0400", "eid": 642698999109124, "latitude": 38.896728119, "location": "The Washington Court Hotel"}, "600245163351322": {"unsure_count": 45, "attending_count": 65, "declined_count": 135, "name": "African-Diaspora Multicultural Festival FUSION of US OF A....WASHINGTON DC AREAS....2014.", "not_replied_count": 1540, "start_time": "2014-09-26T09:00:00-0400", "venue": [], "end_time": "2014-09-27T00:00:00-0400", "eid": 600245163351322, "location": null}, "421160331353601": {"unsure_count": 11, "attending_count": 14, "declined_count": 29, "name": "Saint Patrick's Day @ Ten East Washington", "start_time": "2014-03-17T19:00:00-0400", "not_replied_count": 534, "longitude": -84.798777157, "end_time": null, "eid": 421160331353601, "latitude": 33.3752042347, "location": "Ten East Washington"}, "663138593747642": {"unsure_count": 36, "attending_count": 38, "declined_count": 72, "name": "Harold Washington Speaks - Organizing to EMPOWER", "start_time": "2014-03-27T18:30:00-0500", "not_replied_count": 2345, "longitude": -87.6604870002, "end_time": "2014-03-27T21:00:00-0500", "eid": 663138593747642, "latitude": 41.8584094279, "location": "Blue1647"}, "597176620374928": {"unsure_count": 7, "attending_count": 7, "declined_count": 25, "name": "Mt. Washington Trip!!!!", "start_time": "2014-03-29T04:15:00-0700", "not_replied_count": 142, "end_time": "2014-03-29T21:00:00-0700", "eid": 597176620374928, "location": "Mt Washington, Vancouver Island"}, "220716474789239": {"unsure_count": 1, "attending_count": 10, "declined_count": 10, "name": "Washington D.C. 2015 Origami Owl Online/Catalog Fundraiser", "start_time": "2014-04-08", "not_replied_count": 178, "end_time": null, "eid": 220716474789239, "location": "Online/catalog only"}, "419168108219196": {"unsure_count": 3, "attending_count": 8, "declined_count": 7, "name": "Guyana Berbice Association (GBA)-Washington,DC Chapter 31st Annual Dinner & Dance", "start_time": "2014-04-19T20:00:00-0400", "not_replied_count": 232, "longitude": -76.87366571487, "end_time": "2014-04-20T02:00:00-0400", "eid": 419168108219196, "latitude": 38.954222821001, "location": "La Fontaine Bleue"}, "233099310229673": {"unsure_count": 29, "attending_count": 56, "declined_count": 34, "name": "Washington Brasileiro Dia 8 Maio 2014 Clube Central Do Forr\u00f3 em Cristino Castro-Pi festa das M\u00e3es", "start_time": "2014-05-08T22:00:00-0300", "not_replied_count": 3017, "end_time": null, "eid": 233099310229673, "location": "Clube Central Do Forr\u00f3  Avenida David Campo - Br - 135, 64920000 Cristino Castro"}, "1431075473804687": {"unsure_count": 1, "attending_count": 3, "declined_count": 14, "name": "WASHINGTON COUNTY-PUBLIC MEETING AND VOTE FOR THE REINSTATEMENT OF A MARYLAND COMMON LAW GRAND JURY- WASHINGTON COUNTY", "start_time": "2014-03-27T15:30:00-0400", "not_replied_count": 356, "end_time": null, "eid": 1431075473804687, "location": " Jekyll & Hyde Restaurant 906 N. East St Frederick 21701"}, "307249406066957": {"unsure_count": 1, "attending_count": 15, "declined_count": 26, "name": "\"Call of Duty\" Tour Featuring MITCHY SLICK - Richland, Washington", "start_time": "2014-04-19T21:00:00-0700", "not_replied_count": 792, "longitude": -119.22206960833, "end_time": null, "eid": 307249406066957, "latitude": 46.237640767783, "location": "Kimo's"}, "236872756499764": {"unsure_count": 20, "attending_count": 23, "declined_count": 15, "name": "Washington Co-Ed Basketball Tournament", "start_time": "2014-04-12T09:00:00-0500", "not_replied_count": 197, "longitude": -93.111032586465, "end_time": "2014-04-12T13:00:00-0500", "eid": 236872756499764, "latitude": 44.986504827991, "location": "Washington Technology Magnet School 1495 Rice Street St. Paul, MN  55117"}, "165948673615846": {"unsure_count": 114, "attending_count": 251, "declined_count": 206, "name": "Occupy DC 4/4/14", "start_time": "2014-04-04", "not_replied_count": 2765, "longitude": -77.0367, "end_time": null, "eid": 165948673615846, "latitude": 38.895, "location": "Washington, DC, United States"}, "695174173866414": {"unsure_count": 13, "attending_count": 9, "declined_count": 12, "name": "Brother Sun, Amy Speace, Martyn Joseph in Concert - Port Washington, NY", "start_time": "2014-04-05T20:00:00-0400", "not_replied_count": 379, "longitude": -73.696049171568, "end_time": null, "eid": 695174173866414, "latitude": 40.830824230795, "location": "Landmark on Main Street"}, "1415359182050582": {"unsure_count": 21, "attending_count": 26, "declined_count": 26, "name": "Washington Parish Art Association's Fourth Annual Art Show And Sale", "start_time": "2014-03-22T14:00:00-0500", "not_replied_count": 814, "end_time": "2014-03-22T18:00:00-0500", "eid": 1415359182050582, "location": "28035 Winfred Bateman Road Franklinton, LA 70438"}, "1417342465185657": {"unsure_count": 16, "attending_count": 42, "declined_count": 21, "name": "Hussien El Deek Live in Washington DC", "start_time": "2014-05-23T21:00:00-0400", "not_replied_count": 652, "end_time": "2014-05-24T02:00:00-0400", "eid": 1417342465185657, "location": "Centreville, Virginia 20120"}, "230070687179554": {"unsure_count": 17, "attending_count": 40, "declined_count": 27, "name": "\u00a1Vamos a Washington D. C.!", "start_time": "2014-04-27", "not_replied_count": 410, "longitude": -77.0367, "end_time": null, "eid": 230070687179554, "latitude": 38.895, "location": "Washington, DC, United States"}, "246174838885849": {"unsure_count": 10, "attending_count": 32, "declined_count": 13, "name": "Washington University Run for Research 5K/10K/1 mi Race", "start_time": "2014-04-12T08:00:00-0500", "not_replied_count": 222, "longitude": -90.256664379201, "end_time": "2014-04-12T11:00:00-0500", "eid": 246174838885849, "latitude": 38.606868761197, "location": "Tower Grove Park"}, "1483522805202355": {"unsure_count": 12, "attending_count": 4, "declined_count": 29, "name": "Tour de Fotografias Por los cherry Blossoms de Washington Dc", "start_time": "2014-03-31", "not_replied_count": 639, "longitude": -77.0367, "end_time": null, "eid": 1483522805202355, "latitude": 38.895, "location": "Washington, DC, United States"}, "291719887649037": {"unsure_count": 37, "attending_count": 60, "declined_count": 33, "name": "WASHINGTON C.H. REUNION 2014!", "start_time": "2014-03-29T20:00:00-0400", "not_replied_count": 382, "longitude": -83.469532960364, "end_time": null, "eid": 291719887649037, "latitude": 39.545485941713, "location": "J's Corner Bar & Grill"}, "253879411460860": {"unsure_count": 51, "attending_count": 100, "declined_count": 65, "name": "Dedication Ceremony", "start_time": "2014-04-12T13:00:00-0500", "not_replied_count": 2215, "longitude": -95.378272, "end_time": "2014-04-12T14:30:00-0500", "eid": 253879411460860, "latitude": 29.770846, "location": "Washington Avenue Arts District"}, "534274580001754": {"unsure_count": 18, "attending_count": 60, "declined_count": 11, "name": "2014 Washington Cask Beer Festival", "start_time": "2014-03-22", "not_replied_count": 80, "longitude": -122.35151248751, "end_time": null, "eid": 534274580001754, "latitude": 47.624505209204, "location": "Seattle Center Exhibition Hall"}, "431142040364802": {"unsure_count": 155, "attending_count": 341, "declined_count": 64, "name": "The Mp3 Experiment Washington D.C. 2014", "start_time": "2014-04-12T15:00:00-0400", "not_replied_count": 1078, "longitude": -77.02827895843, "end_time": "2014-04-12T16:00:00-0400", "eid": 431142040364802, "latitude": 38.889105406865, "location": "National Mall"}, "507420159374832": {"unsure_count": 5, "attending_count": 10, "declined_count": 14, "name": "Washington, DC - The Punany Poets' Punany's playhouse", "start_time": "2014-04-11T05:00:00+0200", "not_replied_count": 298, "end_time": "2014-04-11T08:00:00+0200", "eid": 507420159374832, "location": "Washington, DC, US"}, "584875951553527": {"unsure_count": 67, "attending_count": 49, "declined_count": 98, "name": "Gathering of the Nations March to Washington, DC", "start_time": "2014-06-01", "not_replied_count": 795, "end_time": null, "eid": 584875951553527, "location": "Ft. Robinson, Nebraska U.S.A."}, "612621632136285": {"unsure_count": 35, "attending_count": 129, "declined_count": 168, "name": "The Hamilton - Washington, DC", "start_time": "2014-03-28T19:00:00-0400", "not_replied_count": 3962, "longitude": -77.032435387081, "end_time": null, "eid": 612621632136285, "latitude": 38.897350226012, "location": "The Hamilton"}, "1403802423171728": {"unsure_count": 8, "attending_count": 4, "declined_count": 30, "name": "3 million person waddle twords washington", "start_time": "2015-05-18T10:00:00-0400", "not_replied_count": 217, "end_time": null, "eid": 1403802423171728, "location": "Washington"}, "718197578200698": {"unsure_count": 34, "attending_count": 143, "declined_count": 112, "name": "Lil Durk W/S/G Live In Concert", "start_time": "2014-04-04T19:00:00-0400", "not_replied_count": 3966, "longitude": -73.762325, "end_time": "2014-04-05T01:00:00-0400", "eid": 718197578200698, "latitude": 42.657081, "location": "Washington Avenue Armory"}, "706745639348948": {"unsure_count": 8, "attending_count": 18, "declined_count": 8, "name": "Seis De Mayo Rooftop Fiesta in support of the Children's House of Washington", "start_time": "2014-05-06T18:30:00-0400", "not_replied_count": 174, "longitude": -77.060038963076, "end_time": "2014-05-06T21:30:00-0400", "eid": 706745639348948, "latitude": 38.90480754084, "location": "The Graham - Georgetown, Washington D.C."}, "434908489965163": {"unsure_count": 6, "attending_count": 49, "declined_count": 9, "name": "Pancakes & Booze Art Show Washington DC - July 24 - All You Can Eat Pancakes!", "start_time": "2014-07-24T20:00:00-0400", "not_replied_count": 235, "longitude": -77.023044270978, "end_time": "2014-07-25T02:00:00-0400", "eid": 434908489965163, "latitude": 38.896281993619, "location": "Penn Social"}, "584698431619284": {"unsure_count": 7, "attending_count": 16, "declined_count": 25, "name": "Katlynn's Washington DC Trip - Fundraiser", "start_time": "2014-03-10", "not_replied_count": 304, "longitude": -84.615671356206, "end_time": null, "eid": 584698431619284, "latitude": 39.104655165361, "location": "Delhi Middle School"}, "481002942021387": {"unsure_count": 33, "attending_count": 48, "declined_count": 20, "name": "World of Soul Motorcycle Community\u00ae WHY WE RIDE Washington, DC", "start_time": "2014-05-22T19:30:00-0400", "not_replied_count": 0, "longitude": -76.847555597509, "end_time": null, "eid": 481002942021387, "latitude": 38.901661580451, "location": "AMC Magic Johnson Capital Center 12"}, "473532689418693": {"unsure_count": 48, "attending_count": 13, "declined_count": 27, "name": "Washington Girl's Badminton tournament", "start_time": "2014-03-15T09:00:00-0500", "not_replied_count": 279, "longitude": -93.111032586465, "end_time": "2014-03-15T14:00:00-0500", "eid": 473532689418693, "latitude": 44.986504827991, "location": "Washington Technology Magnet School 1495 Rice Street St. Paul, MN  55117"}, "1419408311637039": {"unsure_count": 24, "attending_count": 19, "declined_count": 172, "name": "FUN BUS WINE TOUR", "start_time": "2014-04-19T09:40:00-0700", "not_replied_count": 3046, "longitude": -122.162, "end_time": null, "eid": 1419408311637039, "latitude": 47.7544, "location": "Woodinville, WA, United States"}, "608040035950696": {"unsure_count": 4, "attending_count": 62, "declined_count": 5, "name": "University of Washington 38th Annual Invitational Kendo Taikai", "start_time": "2014-04-19T10:00:00-0700", "not_replied_count": 98, "longitude": -122.30177668371, "end_time": null, "eid": 608040035950696, "latitude": 47.653809126699, "location": "UW IMA"}, "272644919557164": {"unsure_count": 30, "attending_count": 73, "declined_count": 146, "name": "\"Call of Duty\" Tour Featuring Mitchy Slick - Bellingham, Washington", "not_replied_count": 4558, "start_time": "2014-04-12T21:00:00-0700", "venue": [], "end_time": null, "eid": 272644919557164, "location": null}, "1465562716996479": {"unsure_count": 26, "attending_count": 20, "declined_count": 40, "name": "Miss Washington bowl-a-thon!!!", "not_replied_count": 605, "start_time": "2014-03-14T02:00:00+0100", "venue": [], "end_time": "2014-03-14T04:00:00+0100", "eid": 1465562716996479, "location": null}, "479370128834059": {"unsure_count": 28, "attending_count": 67, "declined_count": 40, "name": "CCI - WASHINGTON DC DogFest Walk & Roll", "start_time": "2014-09-13T09:00:00-0400", "not_replied_count": 679, "longitude": -77.062886416201, "end_time": "2014-09-13T12:00:00-0400", "eid": 479370128834059, "latitude": 38.86345336261, "location": "Pentagon Row"}, "1399723870281826": {"unsure_count": 27, "attending_count": 93, "declined_count": 33, "name": "Tagore Music Group of Greater Washington DC presents TOMARI RAGINI", "start_time": "2014-03-30T15:30:00-0400", "not_replied_count": 612, "longitude": -77.12432038813, "end_time": "2014-03-30T17:30:00-0400", "eid": 1399723870281826, "latitude": 39.05400564845, "location": "The Jewish Community Center of Greater Washington"}, "824410777573198": {"unsure_count": 8, "attending_count": 4, "declined_count": 19, "name": "Washington D.C. Bus Trip", "not_replied_count": 246, "start_time": "2014-05-17T12:00:00+0200", "venue": [], "end_time": "2014-05-18T05:00:00+0200", "eid": 824410777573198, "location": null}, "1393413307590816": {"unsure_count": 11, "attending_count": 14, "declined_count": 139, "name": "Washington Humane Society ONLINE Pampered Chef Fundraiser", "start_time": "2014-03-13T23:00:00-0400", "not_replied_count": 1015, "end_time": "2014-03-15T03:00:00-0400", "eid": 1393413307590816, "location": "ONLINE at http://tinyurl.com/washingtonhumane"}, "350502168360811": {"unsure_count": 35, "attending_count": 49, "declined_count": 147, "name": "AIDS RIDE 2014, Washington DC, United States to Melbourne, Australia", "start_time": "2014-07-20T09:00:00+1000", "not_replied_count": 967, "longitude": 144.95493889878, "end_time": null, "eid": 350502168360811, "latitude": -37.824360195534, "location": "Melbourne Exhibition & Convention Centre"}, "1424926871081483": {"unsure_count": 5, "attending_count": 28, "declined_count": 7, "name": "Federal Way, Washington Exposicion Internacional da Danza", "start_time": "2014-04-05", "not_replied_count": 190, "longitude": -112.029861, "end_time": null, "eid": 1424926871081483, "latitude": 33.47644, "location": "Brenda Alvarado"}, "721843121160829": {"unsure_count": 18, "attending_count": 25, "declined_count": 22, "name": "Lawd Im Coming Home Washington in Washington", "start_time": "2014-04-09T02:00:00+0200", "not_replied_count": 469, "longitude": -77.0367, "end_time": null, "eid": 721843121160829, "latitude": 38.895, "location": "Washington, DC, United States"}, "231485013694758": {"unsure_count": 35, "attending_count": 43, "declined_count": 32, "name": "Lipedema Conference Washington DC", "start_time": "2014-09-06T08:00:00-0400", "not_replied_count": 195, "longitude": -77.0367, "end_time": null, "eid": 231485013694758, "latitude": 38.895, "location": "Washington, DC, United States"}, "226198210913292": {"unsure_count": 6, "attending_count": 2, "declined_count": 1, "name": "Aphrodite @ Banger Warehouse - Washington, DC", "start_time": "2014-04-14T03:00:00+0200", "not_replied_count": 15, "longitude": -77.0367, "end_time": "2014-04-14T06:00:00+0200", "eid": 226198210913292, "latitude": 38.895, "location": "Washington, DC, United States"}, "412728715528218": {"unsure_count": 26, "attending_count": 40, "declined_count": 65, "name": "FREE TRIP TO WASHINGTON D.C WITH SERVICE-LEARNING!", "start_time": "2014-04-09", "not_replied_count": 2053, "longitude": -77.0367, "end_time": null, "eid": 412728715528218, "latitude": 38.895, "location": "Washington, DC, United States"}, "252247078247387": {"unsure_count": 48, "attending_count": 35, "declined_count": 31, "name": "5th Annual \"Old School\" Washington Heights Reunion", "start_time": "2014-06-07T13:00:00-0400", "not_replied_count": 245, "longitude": -73.939515341754, "end_time": "2014-06-08T04:00:00-0400", "eid": 252247078247387, "latitude": 40.841599770672, "location": "Coogan's NYC"}, "664964326875824": {"unsure_count": 20, "attending_count": 135, "declined_count": 25, "name": "Light It Up Blue, Washington County", "start_time": "2014-04-02", "not_replied_count": 787, "end_time": null, "eid": 664964326875824, "location": "Washington County, Maine "}, "544283602354205": {"unsure_count": 3, "attending_count": 4, "declined_count": 22, "name": "Citizenship Washington Focus Pampered Chef fundraiser", "start_time": "2014-03-23T14:00:00-0600", "not_replied_count": 532, "longitude": -104.811408495, "end_time": "2014-03-23T16:00:00-0600", "eid": 544283602354205, "latitude": 40.0824754194, "location": "Fort Lupton First United Methodist Church"}, "662085743848382": {"unsure_count": 40, "attending_count": 45, "declined_count": 52, "name": "The Human Solution Washington Chapter meeting!", "start_time": "2014-04-05T13:00:00-0700", "not_replied_count": 1560, "end_time": null, "eid": 662085743848382, "location": "20021 80th Ave S, C-3, Door 4, Kent, WA  98032"}, "679851732054250": {"unsure_count": 28, "attending_count": 51, "declined_count": 43, "name": "Lake Washington Rowing Club Open House", "start_time": "2014-04-03T17:00:00-0700", "not_replied_count": 386, "longitude": -122.346596405, "end_time": "2014-04-03T20:00:00-0700", "eid": 679851732054250, "latitude": 47.6487580505, "location": "Lake Washington Rowing Club"}, "621554657898875": {"unsure_count": 18, "attending_count": 31, "declined_count": 7, "name": "Big Green Affair 2014 | Washington, DC", "start_time": "2014-03-15T14:00:00-0400", "not_replied_count": 101, "longitude": -77.02458368618, "end_time": "2014-03-15T17:00:00-0400", "eid": 621554657898875, "latitude": 38.918381493087, "location": "Duffy's Irish Pub"}, "386392531506926": {"unsure_count": 116, "attending_count": 553, "declined_count": 336, "name": "Lost Picnic | Megan Washington | The Rubens | Emma Louise | Dustin Tebbutt | Sons of the East", "start_time": "2014-03-23T12:00:00+1100", "not_replied_count": 4792, "longitude": 151.23463589164, "end_time": "2014-03-23T20:00:00+1100", "eid": 386392531506926, "latitude": -33.898066826724, "location": "Centennial Park"}, "292974207517501": {"unsure_count": 11, "attending_count": 21, "declined_count": 71, "name": "D.C. -- Neal Barnard, M.D., Hosts Free Workshop to Help Washington Residents Combat Type 2 Diabetes", "start_time": "2014-03-31T16:00:00-0400", "not_replied_count": 870, "end_time": "2014-03-31T17:30:00-0400", "eid": 292974207517501, "location": "Physicians Committee, 5100 Wisconsin Ave., N.W., Ste. 400, Washington, DC 20016. The Physicians Committee is located a few blocks from the Friendship Heights Metro station."}, "696480597061308": {"unsure_count": 6, "attending_count": 26, "declined_count": 48, "name": "Christian, Black, and Pro-Israel: Dumisani Washington", "start_time": "2014-03-12T19:00:00-0700", "not_replied_count": 690, "longitude": -117.0758682, "end_time": null, "eid": 696480597061308, "latitude": 32.7720770323, "location": "The Granada on Hardy"}, "220108781515751": {"unsure_count": 27, "attending_count": 39, "declined_count": 162, "name": "THE BIGGEST EVENT IN THE STATE OF TEXAS \"PROJECT TEXAS\" APRIL 5TH ALL NEW HOUSTON SATURDAY HOTSPOT FOR 18+ THE DRAKE 1902 WASHINGTON AVE. THE ONLY PLACE TO PARTY IN THE CITY EVERYONE FREE BEFORE 11PM DONT MISS THE CRAZY EVENT YOUR SATURDAYS WONT BE THE SAME FOR MORE INFO TEXT OR CALL 832-577-7501", "start_time": "2014-04-05T21:00:00-0500", "not_replied_count": 14170, "longitude": -95.377431675467, "end_time": null, "eid": 220108781515751, "latitude": 29.768216752484, "location": "Gatsby Lounge Inside of The Mark"}, "243225372509860": {"unsure_count": 65, "attending_count": 114, "declined_count": 39, "name": "Ellie Goulding @ Echostage - Washington, DC", "start_time": "2014-03-17T00:00:00+0100", "not_replied_count": 16, "longitude": -77.0367, "end_time": "2014-03-17T03:00:00+0100", "eid": 243225372509860, "latitude": 38.895, "location": "Washington, DC, United States"}, "178941785644802": {"unsure_count": 32, "attending_count": 242, "declined_count": 25, "name": "Excision in Washington DC @ Echostage", "start_time": "2014-03-22T20:00:00-0400", "not_replied_count": 114, "longitude": -76.972418711096, "end_time": null, "eid": 178941785644802, "latitude": 38.919938568983, "location": "Echostage"}, "1415967498652556": {"unsure_count": 2, "attending_count": 17, "declined_count": 10, "name": "Washington Dead Cats dans Jungle Call sur Vall\u00e9e fm", "start_time": "2014-03-14T21:00:00+0100", "not_replied_count": 446, "longitude": 2.6515776163582, "end_time": "2014-03-14T23:00:00+0100", "eid": 1415967498652556, "latitude": 48.826412711546, "location": "Vall\u00e9e fm"}, "1400735710192431": {"unsure_count": 15, "attending_count": 44, "declined_count": 43, "name": "Frederick Salsa's 5 year Birthday Bash!!!!   Special performance by  \"Miss Washington County\" Monique Rue Sparks!!!", "start_time": "2014-03-20T20:30:00-0400", "not_replied_count": 754, "longitude": -77.410061558802, "end_time": "2014-03-21T00:30:00-0400", "eid": 1400735710192431, "latitude": 39.412918965643, "location": "Hinode Japanese Restaurant"}, "431551076947294": {"unsure_count": 25, "attending_count": 66, "declined_count": 22, "name": "Spring 2014 Washington Art Walk", "start_time": "2014-04-11T17:00:00-0500", "not_replied_count": 421, "end_time": "2014-04-11T20:00:00-0500", "eid": 431551076947294, "location": "downtown Washington, MO"}, "593295750750354": {"unsure_count": 14, "attending_count": 13, "declined_count": 20, "name": "Washington D.C. Open 2014", "start_time": "2014-07-20T12:00:00-0400", "not_replied_count": 261, "longitude": -77.426142223783, "end_time": "2014-07-20T18:00:00-0400", "eid": 593295750750354, "latitude": 38.770163360017, "location": "General's Ridge Golf Course"}, "263656707135723": {"unsure_count": 1, "attending_count": 8, "declined_count": 7, "name": "Tour Washington DC", "start_time": "2014-05-20", "not_replied_count": 214, "longitude": -77.0367, "end_time": null, "eid": 263656707135723, "latitude": 38.895, "location": "Washington, DC, United States"}, "208439582697038": {"unsure_count": 13, "attending_count": 65, "declined_count": 23, "name": "Walk to End Lupus Now - Washington, DC", "start_time": "2014-04-19T09:00:00-0400", "not_replied_count": 308, "longitude": -77.0307, "end_time": null, "eid": 208439582697038, "latitude": 38.8959, "location": "Freedom Plaza"}, "704452746253029": {"unsure_count": 15, "attending_count": 23, "declined_count": 21, "name": "The 2013/14 MOFF Selects Tour at Washington County Community College", "start_time": "2014-04-17T19:00:00-0400", "not_replied_count": 130, "longitude": -67.243445, "end_time": "2014-04-17T21:00:00-0400", "eid": 704452746253029, "latitude": 45.166908, "location": "Washington County Community College  (WCCC)"}, "228737813985862": {"unsure_count": 10, "attending_count": 11, "declined_count": 25, "name": "NWPA Tour Stop #1- 2014 Washington State Championships", "start_time": "2014-03-22T10:00:00-0700", "not_replied_count": 181, "longitude": -122.445194958, "end_time": null, "eid": 228737813985862, "latitude": 47.258303509136, "location": "Malarkey's Pool & Brew"}, "591747214214274": {"unsure_count": 23, "attending_count": 55, "declined_count": 39, "name": "Washington Elementary School's 11th Annual Tour of Homes", "not_replied_count": 792, "start_time": "2014-05-10T12:00:00-0500", "venue": [], "end_time": "2014-05-10T17:00:00-0500", "eid": 591747214214274, "location": null}, "265121333649109": {"unsure_count": 15, "attending_count": 52, "declined_count": 4, "name": "NATA DAY @WASHINGTON DC", "start_time": "2014-04-05T16:30:00-0400", "not_replied_count": 381, "longitude": -77.3894672135, "end_time": null, "eid": 265121333649109, "latitude": 39.0508816704, "location": "Potomac Falls Highschool"}, "248680125313773": {"unsure_count": 62, "attending_count": 127, "declined_count": 63, "name": "GLOBAL MARCH FOR LIONS ~ WASHINGTON, DC", "start_time": "2014-03-15T11:00:00-0400", "not_replied_count": 835, "end_time": "2014-03-15T12:30:00-0400", "eid": 248680125313773, "location": "March route: Dupont Circle & Mass Ave NW to South African Embassy "}, "1453213388245707": {"unsure_count": 18, "attending_count": 22, "declined_count": 27, "name": "Last Thursday: Cultural Celebration in Washington County", "start_time": "2014-03-27T18:00:00-0700", "not_replied_count": 461, "end_time": "2014-03-27T21:00:00-0700", "eid": 1453213388245707, "location": "12625 SW Broadway, Suite 200, Beaverton, OR"}, "697771693599055": {"unsure_count": 16, "attending_count": 23, "declined_count": 21, "name": "Candle Light Vigil For The Death Of Medical Cannabis In Washington State Due To Greed", "start_time": "2015-01-16T15:00:00-0800", "not_replied_count": 448, "end_time": null, "eid": 697771693599055, "location": "416 Sid Snyder Avenue SW, Olympia, Washington 98504 "}, "343859802418533": {"unsure_count": 40, "attending_count": 230, "declined_count": 28, "name": "2014 YJA Convention | Washington, D.C.", "start_time": "2014-07-03", "not_replied_count": 393, "longitude": -77.052835006079, "end_time": null, "eid": 343859802418533, "latitude": 38.85890591524, "location": "Marriott Crystal Gateway"}, "800714356608693": {"unsure_count": 10, "attending_count": 15, "declined_count": 3, "name": "Cheer on Cheyanne Garcia as Miss Vancouver Washington Teen USA", "start_time": "2014-10-19T19:00:00-0700", "not_replied_count": 349, "longitude": -122.738992192, "end_time": null, "eid": 800714356608693, "latitude": 48.9932184571, "location": "Blaine Performing Arts Center"}, "237799899733571": {"unsure_count": 11, "attending_count": 24, "declined_count": 11, "name": "Founding Mothers: Goddess in Washington D.C.- A New Pilgrimage Site of Goddess and  Liberation Thealogy of the Sacred Feminine", "start_time": "2014-04-19T19:00:00-0700", "not_replied_count": 223, "longitude": -117.860957, "end_time": "2014-04-19T21:00:00-0700", "eid": 237799899733571, "latitude": 33.691572, "location": "The GODDESS TEMPLE of Orange County"}, "349275955128731": {"unsure_count": 7, "attending_count": 11, "declined_count": 93, "name": "george Washington", "start_time": "2015-01-03T11:00:00-0500", "not_replied_count": 151, "longitude": -75.067692211, "end_time": "2015-03-14T22:00:00-0400", "eid": 349275955128731, "latitude": 40.8879065079, "location": "On The Deleware River"}, "720885207944076": {"unsure_count": 9, "attending_count": 19, "declined_count": 16, "name": "Washington State COGOP 75th Annual Convention \"ANOINTED FOR A PURPOSE\"", "start_time": "2014-08-22T18:00:00-0700", "not_replied_count": 273, "longitude": -119.22545606296, "end_time": "2014-08-24T12:00:00-0700", "eid": 720885207944076, "latitude": 46.222188389704, "location": "Red Lion Hotel Columbia Center"}, "215929638584940": {"unsure_count": 22, "attending_count": 71, "declined_count": 38, "name": "Broadway Bomb for SPINA BIFIDA Washington D.C.", "start_time": "2014-10-11T18:00:00+0200", "not_replied_count": 998, "longitude": -77.0933, "end_time": "2014-10-11T21:00:00+0200", "eid": 215929638584940, "latitude": 39.0381, "location": "Garrett Park, MD, United States"}, "229930800529750": {"unsure_count": 5, "attending_count": 11, "declined_count": 71, "name": "Washington LIVE with Julian Socha + Harry Garcha + More TBA", "start_time": "2014-03-19T20:00:00+0000", "not_replied_count": 2268, "longitude": -1.4783383293759, "end_time": "2014-03-20T12:00:00+0000", "eid": 229930800529750, "latitude": 53.37803753425, "location": "The Washington"}, "458355347587097": {"unsure_count": 2066, "attending_count": 5204, "declined_count": 4631, "name": "ONE MILLION PIBBLE MARCH ON WASHINGTON DC", "start_time": "2014-05-03", "not_replied_count": 37935, "longitude": -77.0367, "end_time": null, "eid": 458355347587097, "latitude": 38.895, "location": "Washington, DC, United States"}, "393977167372486": {"unsure_count": 10, "attending_count": 3, "declined_count": 18, "name": "Washington New Hampshire SDA Church Annual Meeting", "start_time": "2014-08-16T10:00:00-0400", "not_replied_count": 255, "end_time": null, "eid": 393977167372486, "location": "Washington NH SDA CHurch"}, "634150596657772": {"unsure_count": 96, "attending_count": 187, "declined_count": 303, "name": "Official Parkfest Afterparty! (Highlighter Party) NEW VENUE TO BE ANNOUNCED>", "not_replied_count": 7430, "start_time": "2014-04-05T20:00:00-0400", "venue": [], "end_time": null, "eid": 634150596657772, "location": null}, "243193109195738": {"unsure_count": 20, "attending_count": 26, "declined_count": 57, "name": "Mmm..Nice music! presents GENO WASHINGTON.", "start_time": "2014-11-29T19:30:00+0000", "not_replied_count": 812, "longitude": -2.4365083887048, "end_time": null, "eid": 243193109195738, "latitude": 50.715707298989, "location": "Dorchester Corn Exchange"}, "299755013506171": {"unsure_count": 8, "attending_count": 10, "declined_count": 13, "name": "Leland Cheung's Washington D.C. Meet and Greet!", "start_time": "2014-03-10T17:30:00-0400", "not_replied_count": 204, "longitude": -77.038182855332, "end_time": "2014-03-10T19:30:00-0400", "eid": 299755013506171, "latitude": 38.906777138467, "location": "Beacon Bar & Grill"}, "1475907295957616": {"unsure_count": 0, "attending_count": 12, "declined_count": 8, "name": "City Choir of Washington Auction", "start_time": "2014-03-29T17:00:00-0400", "not_replied_count": 152, "longitude": -77.126852214425, "end_time": "2014-03-29T21:00:00-0400", "eid": 1475907295957616, "latitude": 38.976855618174, "location": "River Road Unitarian Universalist Congregation  RRUUC"}, "498117380279603": {"unsure_count": 20, "attending_count": 23, "declined_count": 51, "name": "Studieresa Washington - New York", "start_time": "2014-03-31", "not_replied_count": 190, "longitude": -77.049222837876, "end_time": null, "eid": 498117380279603, "latitude": 38.889113984736, "location": "Lincoln Memorial"}, "1402509416681892": {"unsure_count": 8, "attending_count": 3, "declined_count": 24, "name": "JMB - Jan Masuhr Band mit Jennifer Washington", "start_time": "2014-03-29T20:30:00+0100", "not_replied_count": 262, "end_time": null, "eid": 1402509416681892, "location": "RUK im Mausoleum Offenbach-Rumpenheim (Schlo\u00dfgartenstr. 1, 63075 OF)"}, "1443837429185219": {"unsure_count": 23, "attending_count": 90, "declined_count": 38, "name": "Washington City Paper's Best of D.C. Fete 2014", "start_time": "2014-04-09T19:00:00-0400", "not_replied_count": 853, "longitude": -77.022890428764, "end_time": "2014-04-09T22:00:00-0400", "eid": 1443837429185219, "latitude": 38.902406469404, "location": "Carnegie Library at Mt. Vernon Square"}, "651003981604085": {"unsure_count": 10, "attending_count": 18, "declined_count": 6, "name": "60s & 70s Rock n Roll Spectacular Fundraiser for Washington Square Residence", "start_time": "2014-05-17T20:00:00-0400", "not_replied_count": 246, "longitude": -70.950940511289, "end_time": null, "eid": 651003981604085, "latitude": 42.464397818412, "location": "Lynn Memorial Auditorium"}, "131524473684422": {"unsure_count": 10, "attending_count": 53, "declined_count": 6, "name": "Washington houses Father's Day reunion 2014", "start_time": "2014-06-15T11:00:00-0400", "not_replied_count": 333, "longitude": -73.945073308991, "end_time": null, "eid": 131524473684422, "latitude": 40.7879314263, "location": "George Washington Housing Projects"}, "1418017665113957": {"unsure_count": 5, "attending_count": 16, "declined_count": 42, "name": "Washington School McPTA Night", "start_time": "2014-03-18T16:00:00-0700", "not_replied_count": 453, "longitude": -124.190635285, "end_time": "2014-03-18T19:00:00-0700", "eid": 1418017665113957, "latitude": 40.7764062071, "location": "McDonald's at 3450 S Broadway"}, "754443471246064": {"unsure_count": 12, "attending_count": 23, "declined_count": 17, "name": "An Evening with Washington Journalists and Their Favorite Children's Books", "start_time": "2014-03-27T18:00:00-0400", "not_replied_count": 569, "longitude": -77.028128123111, "end_time": null, "eid": 754443471246064, "latitude": 38.900755265144, "location": "Bobby Van's Grill"}, "439993196133643": {"unsure_count": 22, "attending_count": 22, "declined_count": 72, "name": "BloomScreen & Washington DC Portuguese Meetup present: Samba On Your Feet", "start_time": "2014-03-11T19:00:00-0400", "not_replied_count": 2266, "longitude": -77.028049864177, "end_time": "2014-03-11T21:00:00-0400", "eid": 439993196133643, "latitude": 38.930187808924, "location": "Bloombars"}, "220409111489774": {"unsure_count": 7, "attending_count": 36, "declined_count": 17, "name": "Amy Washington is coming to Indiana!", "start_time": "2014-04-05T18:00:00-0400", "not_replied_count": 388, "longitude": -85.048469293223, "end_time": "2014-04-05T20:00:00-0400", "eid": 220409111489774, "latitude": 41.265178877855, "location": "County Line Church of God"}, "617320475006601": {"unsure_count": 27, "attending_count": 95, "declined_count": 18, "name": "Speciesism: The Movie - Washington State Premiere", "start_time": "2014-04-03T19:00:00-0700", "not_replied_count": 300, "longitude": -122.31338773314, "end_time": "2014-04-03T21:30:00-0700", "eid": 617320475006601, "latitude": 47.660757165542, "location": "Varsity Theatre"}, "505708802873696": {"unsure_count": 14, "attending_count": 49, "declined_count": 37, "name": "DADDY YANKEE LIVE JULY 18TH @ ECHO STAGE WASHINGTON DC!", "start_time": "2014-07-18T21:00:00-0400", "not_replied_count": 962, "longitude": -76.972418711096, "end_time": null, "eid": 505708802873696, "latitude": 38.919938568983, "location": "Echostage"}, "1425708484328048": {"unsure_count": 25, "attending_count": 76, "declined_count": 125, "name": "Fagstyrets utenlandstur til New York og Washington", "start_time": "2014-03-20T10:00:00+0100", "not_replied_count": 161, "longitude": 5.3148981495461, "end_time": "2014-03-31T09:00:00+0200", "eid": 1425708484328048, "latitude": 60.389862733595, "location": "Fagstyret"}, "276054575892863": {"unsure_count": 4, "attending_count": 3, "declined_count": 3, "name": "Team Boston for 2014 Tibet Lobby Day at Washington DC", "start_time": "2014-03-31", "not_replied_count": 297, "longitude": -77.021791479483, "end_time": null, "eid": 276054575892863, "latitude": 38.887634763961, "location": "Capitol - Washington DC"}, "820687331278004": {"unsure_count": 25, "attending_count": 27, "declined_count": 90, "name": "CERCHIAMO ARTISTI  Spettacolo in piazza via Washington", "start_time": "2014-05-04T14:30:00+0200", "not_replied_count": 1463, "longitude": 9.1546711650871, "end_time": "2014-05-04T18:30:00+0200", "eid": 820687331278004, "latitude": 45.45661113971, "location": "Via Washington, Milano"}, "556844941072543": {"unsure_count": 29, "attending_count": 138, "declined_count": 15, "name": "Washington/Westwood Open 40th Anniversary Celebration", "start_time": "2014-04-26T11:00:00-0700", "not_replied_count": 299, "longitude": -121.940785746, "end_time": "2014-04-26T15:00:00-0700", "eid": 556844941072543, "latitude": 37.3420831832, "location": "Washington Elementary School"}, "649470635088563": {"unsure_count": 37, "attending_count": 160, "declined_count": 25, "name": "Color in Motion 5K Washington D.C.", "start_time": "2014-04-19T09:00:00-0400", "not_replied_count": 247, "longitude": -76.865129506894, "end_time": null, "eid": 649470635088563, "latitude": 38.907661367684, "location": "FedExField"}, "1432128570360654": {"unsure_count": 5, "attending_count": 15, "declined_count": 7, "name": "NEWNAN UNPLUGGED! Saturday  April 19th @ Ten East Washington", "start_time": "2014-04-19T20:00:00-0400", "not_replied_count": 263, "longitude": -84.798777157, "end_time": null, "eid": 1432128570360654, "latitude": 33.3752042347, "location": "Ten East Washington"}, "427518354045920": {"unsure_count": 24, "attending_count": 38, "declined_count": 11, "name": "Washington Women in Jazz Festival presents Jessica Boykin-Settles", "start_time": "2014-03-16T14:00:00-0400", "not_replied_count": 357, "longitude": -76.9761003648, "end_time": "2014-03-16T16:00:00-0400", "eid": 427518354045920, "latitude": 38.8565873774, "location": "Smithsonian Anacostia Community Museum"}, "1381070655460399": {"unsure_count": 10, "attending_count": 4, "declined_count": 19, "name": "Team G's #48  Mt. Washington", "start_time": "2014-09-13", "not_replied_count": 128, "longitude": -71.139808517456, "end_time": null, "eid": 1381070655460399, "latitude": 44.075224356283, "location": "Mt. Washington"}, "179630045581651": {"unsure_count": 21, "attending_count": 54, "declined_count": 61, "name": "Operation \u201cAmerican Spring\u201d set for May 16, 2014: Target Washington, D.C.", "start_time": "2014-05-16", "not_replied_count": 691, "longitude": -77.0367, "end_time": null, "eid": 179630045581651, "latitude": 38.895, "location": "Washington, DC, United States"}, "208805899328484": {"unsure_count": 17, "attending_count": 18, "declined_count": 18, "name": "Dumisani Washington: Israel is Diverse by Choice", "start_time": "2014-03-27T19:00:00-0500", "not_replied_count": 334, "longitude": -91.42638322, "end_time": null, "eid": 208805899328484, "latitude": 41.92646515, "location": "Kimmel Theatre"}, "657876894275567": {"unsure_count": 21, "attending_count": 7, "declined_count": 67, "name": "LOYAL HANNA @ WASHINGTON FURNACE INN", "start_time": "2014-03-15T21:00:00-0400", "not_replied_count": 1291, "longitude": -79.176823688256, "end_time": null, "eid": 657876894275567, "latitude": 40.204812576946, "location": "The Washington Furnace Inn"}, "284037321744321": {"unsure_count": 21, "attending_count": 56, "declined_count": 28, "name": "WASHINGTON TOWNSHIP WEEK", "start_time": "2014-03-11T18:00:00-0400", "not_replied_count": 682, "end_time": null, "eid": 284037321744321, "location": "www.twpweek.com"}, "237060796478630": {"unsure_count": 9, "attending_count": 12, "declined_count": 3, "name": "Comedy Night at 10 East Washington", "start_time": "2014-03-28T20:30:00-0400", "not_replied_count": 204, "end_time": null, "eid": 237060796478630, "location": " 10 east washington, newnan ga"}, "708127132539720": {"unsure_count": 13, "attending_count": 13, "declined_count": 18, "name": "Walkable Washington Annual Symposium & Awards", "start_time": "2014-04-03T09:00:00-0700", "not_replied_count": 534, "longitude": -122.34038171417, "end_time": "2014-04-03T13:00:00-0700", "eid": 708127132539720, "latitude": 47.608864371934, "location": "Pike Place Market"}, "607654472649370": {"unsure_count": 3, "attending_count": 4, "declined_count": 6, "name": "Washington International Women Entrepreneurs Forum - WIWEF 2014", "start_time": "2014-10-28T08:00:00-0400", "not_replied_count": 343, "end_time": "2014-10-29T18:00:00-0400", "eid": 607654472649370, "location": "JW Marriott Washington, DC 1331 Pennsylvania Avenue NW Washington, DC 20004"}, "430404277073209": {"unsure_count": 6, "attending_count": 4, "declined_count": 74, "name": "Washington DC", "start_time": "2014-05-07", "not_replied_count": 310, "longitude": -77.0367, "end_time": null, "eid": 430404277073209, "latitude": 38.895, "location": "Washington, DC, United States"}, "658992407498322": {"unsure_count": 44, "attending_count": 88, "declined_count": 20, "name": "Class Of 79 Washington High Alumni Reunion", "start_time": "2014-08-02T21:00:00+0200", "not_replied_count": 431, "longitude": -122.007353976, "end_time": "2014-08-03T02:00:00+0200", "eid": 658992407498322, "latitude": 37.5268313413, "location": "Swiss Park Bar & Grille"}, "839146632768195": {"unsure_count": 18, "attending_count": 20, "declined_count": 29, "name": "One Million Pibble March on Washington, DC", "start_time": "2014-05-03", "not_replied_count": 336, "longitude": -77.0367, "end_time": null, "eid": 839146632768195, "latitude": 38.895, "location": "Washington, DC, United States"}, "607135489365437": {"unsure_count": 3, "attending_count": 4, "declined_count": 2, "name": "JAMMIN' AT THE GEM \u2013 Massey Hall 60th Anniversary | Bill Charlap and his trio of Kenny Washington and Peter Washington performing with special guests, virtuosi: Jon Faddis and Jesse Davis", "start_time": "2014-05-17T20:00:00-0500", "not_replied_count": 0, "longitude": -94.562785916715, "end_time": null, "eid": 607135489365437, "latitude": 39.091303607444, "location": "American Jazz Museum"}, "751762321509239": {"unsure_count": 12, "attending_count": 19, "declined_count": 16, "name": "TorysProductions Presents Kid Riz & Sven at The Washington Theatre", "start_time": "2014-04-04", "not_replied_count": 333, "longitude": -74.974682775047, "end_time": null, "eid": 751762321509239, "latitude": 40.759224674978, "location": "The Washington Theatre"}, "739763522724389": {"unsure_count": 5, "attending_count": 42, "declined_count": 10, "name": "George Washington University v. University of Rhode Island", "start_time": "2014-03-23T15:30:00-0400", "not_replied_count": 226, "end_time": null, "eid": 739763522724389, "location": "Washington, District of Columbia 20052"}, "464570496983062": {"unsure_count": 70, "attending_count": 193, "declined_count": 201, "name": "April 18: 2014 DMC WASHINGTON DC DJ Battle feat. DMC World Champ: CHRIS KARNS", "start_time": "2014-04-18T18:00:00-0400", "not_replied_count": 6623, "longitude": -77.027830185085, "end_time": "2014-04-18T22:00:00-0400", "eid": 464570496983062, "latitude": 38.917086591762, "location": "U Street Music Hall"}, "536130679834842": {"unsure_count": 16, "attending_count": 47, "declined_count": 26, "name": "Happy Hour Benefiting The Washington Ballet", "start_time": "2014-03-13T18:00:00-0400", "not_replied_count": 484, "longitude": -77.07224680709, "end_time": "2014-03-13T21:00:00-0400", "eid": 536130679834842, "latitude": 38.921022472691, "location": "Town Hall"}, "210771795798974": {"unsure_count": 0, "attending_count": 21, "declined_count": 5, "name": "Facebook Vendor and Craft Spring Fling", "start_time": "2014-04-01T11:05:00-0400", "not_replied_count": 188, "longitude": -87.1728, "end_time": "2014-04-05T23:00:00-0400", "eid": 210771795798974, "latitude": 38.6592, "location": "Washington, IN, United States"}, "453160451476712": {"unsure_count": 35, "attending_count": 35, "declined_count": 111, "name": "Washington County Humane Society Zumbathon", "start_time": "2014-04-12T10:00:00-0500", "not_replied_count": 2752, "longitude": -88.1817347727, "end_time": "2014-04-12T12:00:00-0500", "eid": 453160451476712, "latitude": 43.4137765962, "location": "Badger Middle School"}, "1396203650627770": {"unsure_count": 35, "attending_count": 142, "declined_count": 62, "name": "Joe Bonamassa U.S. Spring Tour 2014 - Spokane Washington", "start_time": "2014-03-25T20:00:00-0700", "not_replied_count": 404, "longitude": -117.41763152922, "end_time": null, "eid": 1396203650627770, "latitude": 47.660390666457, "location": "INB Performing Arts Center"}, "722379351126271": {"unsure_count": 150, "attending_count": 219, "declined_count": 291, "name": "K.K. Tyler Entertainment Presents \"Triumphant Love - The Series\"", "start_time": "2014-04-06T01:30:00+0200", "not_replied_count": 7678, "longitude": -87.6161126457, "end_time": null, "eid": 722379351126271, "latitude": 41.8092773533, "location": "The Harold Washington Cultural Center HWCC"}, "295021410650019": {"unsure_count": 149, "attending_count": 257, "declined_count": 204, "name": "Georgetown's 2014 Pow Wow", "start_time": "2014-04-05T12:00:00-0400", "not_replied_count": 4791, "end_time": null, "eid": 295021410650019, "location": "Copley Lawn, Georgetown University, Washington DC"}, "220387168162125": {"unsure_count": 11, "attending_count": 21, "declined_count": 50, "name": "MUDSLIDE FUNDRAISER---- OSO, WASHINGTON", "start_time": "2014-03-27T15:00:00-0700", "not_replied_count": 723, "end_time": "2014-05-31T23:45:00-0700", "eid": 220387168162125, "location": "Arlington, Washington"}, "681944111857325": {"unsure_count": 12, "attending_count": 18, "declined_count": 18, "name": "Washington Metropolitan Philharmonic Concert", "start_time": "2014-03-30T15:00:00-0400", "not_replied_count": 253, "longitude": -77.085, "end_time": null, "eid": 681944111857325, "latitude": 38.824, "location": "T. C. Williams High School"}, "595064533895947": {"unsure_count": 2, "attending_count": 7, "declined_count": 32, "name": "Fresh Juice served at The Washington Avenue Post", "start_time": "2014-03-23T09:00:00-0700", "not_replied_count": 792, "longitude": -90.19888159467, "end_time": "2014-03-23T13:00:00-0700", "eid": 595064533895947, "latitude": 38.63234102785, "location": "Washington Ave Post"}, "288800857941082": {"unsure_count": 15, "attending_count": 73, "declined_count": 40, "name": "Keep Washington Afloat!", "start_time": "2014-03-17T14:00:00-0500", "not_replied_count": 469, "longitude": -88.987788216696, "end_time": "2014-03-18T18:00:00-0500", "eid": 288800857941082, "latitude": 40.508076431701, "location": "Watterson Towers"}, "296867190468808": {"unsure_count": 16, "attending_count": 15, "declined_count": 27, "name": "Open Mic - Music and Poetry @ The Washington Theatre", "start_time": "2014-03-21T19:00:00-0400", "not_replied_count": 599, "longitude": -74.974682775047, "end_time": null, "eid": 296867190468808, "latitude": 40.759224674978, "location": "The Washington Theatre"}, "1463662247185125": {"unsure_count": 5, "attending_count": 15, "declined_count": 28, "name": "Washington Nationals vs. Atlanta Braves - $9 Tickets!!!", "start_time": "2014-04-06T13:35:00-0400", "not_replied_count": 1126, "longitude": -77.0076827183, "end_time": null, "eid": 1463662247185125, "latitude": 38.872744247745, "location": "Nationals Park"}, "218637764998179": {"unsure_count": 5, "attending_count": 10, "declined_count": 5, "name": "\u201cDoctors Are In\u201d Tour - Washington DC Event", "start_time": "2014-05-06T19:00:00-0400", "not_replied_count": 163, "end_time": null, "eid": 218637764998179, "location": "Country Inn & Suites By Carlson, Woodbridge, VA 2621 Prince William Pkwy Woodbridge, VA 22192"}, "172603742948008": {"unsure_count": 16, "attending_count": 35, "declined_count": 23, "name": "Washington State GCRF Walk for a Cure", "start_time": "2014-04-19T11:00:00-0700", "not_replied_count": 252, "longitude": -120.47604987019, "end_time": "2014-04-19T13:00:00-0700", "eid": 172603742948008, "latitude": 46.602280017824, "location": "Sarg Hubbard Park"}, "358903470882985": {"unsure_count": 8, "attending_count": 16, "declined_count": 46, "name": "Fundraising for Deric's Washington DC Trip", "not_replied_count": 331, "start_time": "2014-04-01", "venue": [], "end_time": null, "eid": 358903470882985, "location": null}, "245696015582790": {"unsure_count": 6, "attending_count": 107, "declined_count": 3, "name": "University of Washington Rehab Medicine Job Fair", "start_time": "2014-04-12T13:00:00-0700", "not_replied_count": 119, "longitude": -122.307736435, "end_time": "2014-04-12T16:00:00-0700", "eid": 245696015582790, "latitude": 47.654998466, "location": "Mary Gates Hall"}, "592471494172376": {"unsure_count": 7, "attending_count": 19, "declined_count": 118, "name": "The Good Host Welcomes... Washington Reed / Sea's Fire / The Probes", "start_time": "2014-03-28T20:00:00+0000", "not_replied_count": 1622, "longitude": -2.9861922283514, "end_time": "2014-03-29T01:00:00+0000", "eid": 592471494172376, "latitude": 53.406464722641, "location": "Hopskotch Street Kitchen & Bar Liverpool"}, "237941253045844": {"unsure_count": 110, "attending_count": 178, "declined_count": 305, "name": "The National 4/20 Rally In Washington D.C", "start_time": "2014-04-20T10:00:00-0400", "not_replied_count": 5362, "longitude": -77.0363792123, "end_time": "2014-04-20T18:00:00-0400", "eid": 237941253045844, "latitude": 38.8994591753, "location": "Lafayette Park"}, "307289346084791": {"unsure_count": 4, "attending_count": 15, "declined_count": 20, "name": "WASHINGTON SQUARE TUESDAY MEET", "start_time": "2014-03-11T20:00:00-0700", "not_replied_count": 1052, "longitude": -122.78153672447, "end_time": null, "eid": 307289346084791, "latitude": 45.451770077419, "location": "Macy's Washington Square"}, "559907274075457": {"unsure_count": 15, "attending_count": 67, "declined_count": 23, "name": "GORUCK Scavenger - Washington, DC", "start_time": "2014-03-22T13:00:00-0400", "not_replied_count": 59, "longitude": -77.0367, "end_time": null, "eid": 559907274075457, "latitude": 38.895, "location": "Washington, DC, United States"}, "660511630678423": {"unsure_count": 7, "attending_count": 31, "declined_count": 12, "name": "Washington Power of the Purse", "start_time": "2014-04-03T17:30:00-0500", "not_replied_count": 308, "longitude": -91.012598, "end_time": null, "eid": 660511630678423, "latitude": 38.561759, "location": "Franklin County Area United Way"}, "1398871870359584": {"unsure_count": 14, "attending_count": 29, "declined_count": 17, "name": "DATE CHANGE TO -  Wed, April 16 -  A Breakfast Reception With Candidate  Eric Washington", "not_replied_count": 300, "start_time": "2014-04-16T07:30:00-0400", "venue": [], "end_time": "2014-04-16T09:00:00-0400", "eid": 1398871870359584, "location": null}, "201478076713885": {"unsure_count": 25, "attending_count": 79, "declined_count": 70, "name": "National Missing Children's Day - Washington State", "start_time": "2014-05-24T11:00:00-0700", "not_replied_count": 0, "longitude": -122.91913761407, "end_time": "2014-05-24T16:00:00-0700", "eid": 201478076713885, "latitude": 46.994524318989, "location": "Walmart Tumwater"}, "244279769054559": {"unsure_count": 8, "attending_count": 33, "declined_count": 6, "name": "2014 ACSM Northwest Annual Meeting in Wenatchee, Washington", "start_time": "2014-04-17T18:00:00-0700", "not_replied_count": 121, "longitude": -120.31226792644, "end_time": null, "eid": 244279769054559, "latitude": 47.426835145418, "location": "Wenatchee Convention Center"}, "778885138793355": {"unsure_count": 40, "attending_count": 41, "declined_count": 92, "name": "NORPAC Mission to Washington 2014", "start_time": "2014-04-30", "not_replied_count": 1386, "longitude": -77.0367, "end_time": null, "eid": 778885138793355, "latitude": 38.895, "location": "Washington, DC, United States"}, "1407932876134586": {"unsure_count": 5, "attending_count": 9, "declined_count": 5, "name": "Happy Tails Animal Rescue of Washington Co, Va is holding an ONLINE PAMPERED CHEF FUNDRAISER !!!", "start_time": "2014-03-30T09:00:00-0400", "not_replied_count": 174, "end_time": "2014-03-30T18:00:00-0400", "eid": 1407932876134586, "location": "\t From the Comfort of your Home through 3/30"}, "665377400175493": {"unsure_count": 2, "attending_count": 2, "declined_count": 13, "name": "Trip to Washington, DC: Cherry Blossoms, Calder, Chocolate", "start_time": "2014-04-04T17:00:00-0400", "not_replied_count": 0, "longitude": -77.022411832959, "end_time": "2014-04-06T15:00:00-0400", "eid": 665377400175493, "latitude": 38.896746449619, "location": "Hotel Monaco Washington DC - A Kimpton Hotel"}, "586139501460866": {"unsure_count": 11, "attending_count": 6, "declined_count": 107, "name": "Tonight! Mar. 22 - M\u00d6TORBOAT Rocks Washington, IA. at the 4th Ave Bar & Grill", "start_time": "2014-03-22T21:00:00-0500", "not_replied_count": 2920, "longitude": -91.688599, "end_time": null, "eid": 586139501460866, "latitude": 41.302246, "location": "4th Ave Bar & Grill"}, "613134665434013": {"unsure_count": 2, "attending_count": 14, "declined_count": 12, "name": "Washington Little League Opening Day, Saturday April 5th, 2014", "start_time": "2014-04-05T09:00:00-0700", "not_replied_count": 351, "end_time": null, "eid": 613134665434013, "location": "Washington Little League Baseball Fields- 1225 Carrie Street, West Sacramento, CA 95605"}, "812134672133324": {"unsure_count": 33, "attending_count": 84, "declined_count": 27, "name": "NORTHWEST TEN GOES TO WASHINGTON!", "start_time": "2014-04-03T19:30:00-0700", "not_replied_count": 990, "longitude": -123.09535334, "end_time": "2014-04-12T19:30:00-0700", "eid": 812134672133324, "latitude": 44.0498561564, "location": "Oregon Contemporary Theatre"}, "192189770988879": {"unsure_count": 33, "attending_count": 101, "declined_count": 11, "name": "Ft.Washington 'O'MENS MC 5th Anniversary", "start_time": "2014-10-11T21:00:00-0400", "not_replied_count": 712, "longitude": -76.9790032762, "end_time": "2014-10-12T01:00:00-0400", "eid": 192189770988879, "latitude": 38.7911142465, "location": "Knights of Columbus"}, "510717222370836": {"unsure_count": 11, "attending_count": 33, "declined_count": 8, "name": "PASTOR RAFAEL WASHINGTON SR AND SIS REGINA WASHINGTON", "start_time": "2014-03-23T16:30:00-0500", "not_replied_count": 288, "end_time": null, "eid": 510717222370836, "location": "GOD'S COMPASSIONATE CENTER INTERNATIONAL MINISTRIES 3736-38 W CHICAGO AVE. CHICAGO ILL 60651"}, "219536981566088": {"unsure_count": 196, "attending_count": 252, "declined_count": 184, "name": "DCLX 2014 ~ Washington DC's (13th Annual) Lindy Exchange", "start_time": "2014-04-25", "not_replied_count": 1430, "end_time": null, "eid": 219536981566088, "location": "Washington, DC"}, "820304447986143": {"unsure_count": 57, "attending_count": 134, "declined_count": 70, "name": "Alsarah & The Nubatones (Sudanese Nubian Soul) at Tropicalia, Washington DC", "start_time": "2014-03-28T20:00:00-0400", "not_replied_count": 1546, "longitude": -77.031757467689, "end_time": null, "eid": 820304447986143, "latitude": 38.917048367801, "location": "Tropicalia"}, "503384886433355": {"unsure_count": 5, "attending_count": 8, "declined_count": 7, "name": "Washington Wednesdays w/ Sandra Dee's Food truck", "start_time": "2014-03-19T12:00:00-0700", "not_replied_count": 149, "longitude": -112.06484859095, "end_time": "2014-03-19T13:00:00-0700", "eid": 503384886433355, "latitude": 33.457371971879, "location": "CO+HOOTS"}, "1388599761362369": {"unsure_count": 0, "attending_count": 5, "declined_count": 6, "name": "Haili Is Going To Washington DC", "start_time": "2015-03-01", "not_replied_count": 227, "longitude": -119.288, "end_time": null, "eid": 1388599761362369, "latitude": 45.8406, "location": "Hermiston, OR, United States"}, "594149597336020": {"unsure_count": 22, "attending_count": 97, "declined_count": 53, "name": "Najwa Karam Concert Washington, D.C.", "start_time": "2014-05-04T03:00:00+0200", "not_replied_count": 1108, "longitude": -77.053103799774, "end_time": "2014-05-04T08:00:00+0200", "eid": 594149597336020, "latitude": 38.857637081351, "location": "Marriott Gateway Crystal City"}, "645375528823237": {"unsure_count": 1, "attending_count": 37, "declined_count": 20, "name": "Washington Shabbaton", "start_time": "2014-04-03T21:00:00-0400", "not_replied_count": 242, "longitude": -77.0367, "end_time": "2014-04-06T23:30:00-0400", "eid": 645375528823237, "latitude": 38.895, "location": "Washington, DC, United States"}, "1449757855240734": {"unsure_count": 41, "attending_count": 160, "declined_count": 41, "name": "Washington County Tractor Pullers Association", "start_time": "2014-05-25T00:00:00+0200", "not_replied_count": 838, "longitude": -77.741557897129, "end_time": null, "eid": 1449757855240734, "latitude": 39.515421601928, "location": "Washington County Agriculture Center"}, "265939753573175": {"unsure_count": 16, "attending_count": 36, "declined_count": 6, "name": "Unite Against Bullying ME Walk, Run, or Roll Washington County", "eid": 265939753573175, "start_time": "2014-09-28", "not_replied_count": 379, "longitude": -67.3874615506, "location": "Woodland Elementary School", "latitude": 44.7342782049, "end_time": null}, "258818264282476": {"unsure_count": 9, "attending_count": 27, "declined_count": 15, "name": "Engaged Theatre Performance by the Women at Washington Corrections Center for Women", "start_time": "2014-04-07T17:15:00-0700", "not_replied_count": 457, "longitude": -122.607657295, "end_time": null, "eid": 258818264282476, "latitude": 47.3428269824, "location": "Washington Corrections Center for Women"},